Date, Time, System Timestamp,Angle Pitch, Angle Roll, Angle Yaw, Pitch Reference, Roll Reference, Yaw Reference, Ang.vel. Pitch, Ang.vel. Roll, Ang.vel. Yaw, Total acc. X, Total acc. Y, Total acc. Z, Trans. acc. X, Trans. acc. Y, Trans. acc. Z, Total acc., Height, dHeight, Height reference, dHeight reference,Latitude, Longitude, Height, Speed x, Speed y, Horizontal accuracy, GPS Status,Battery 1, Battery 2, Status, FlightMode,Pressure, Temp. Gyro, Temp. ADC,Pitch, Roll, Yaw, Thrust,debug1,debug2,debug3,debug4
17.7.2015,30:35.3,34,0.064,-0.77,176.83,0.189,-0.963,176.452,-19,18,28,0.003,0.017,-0.965,0.004,0.003,0.001,0.965,0.391,0.003,0.358,-0.115,39.680584,-75.7523086,3.714,0,0,0.61,-8957,11.765,0,0,7,132,32481,13990,0,0,0,1,0,0,0,0
17.7.2015,30:35.4,34,0.091,-0.802,176.823,0.235,-0.923,176.062,-61,0,-2,0.004,0.016,-0.962,0.004,-0.001,0.002,0.962,0.388,0.001,0.36,-0.016,39.680584,-75.7523086,3.714,0,0,0.61,-8957,11.764,0,0,7,135,32481,13990,0,0,0,1,0,0,0,0
17.7.2015,30:35.5,34,0.107,-0.8,176.8,0.206,-0.917,176.062,21,-27,-38,0.004,0.016,-0.964,0.002,0,-0.001,0.964,0.393,0.002,0.481,1.202,39.680584,-75.7523086,3.714,0,0,0.61,-8957,11.763,0,0,7,135,32481,13990,0,0,0,1,0,0,0,0
17.7.2015,30:35.6,34,0.166,-0.79,176.798,0.349,-0.705,175.792,-21,-48,8,0.006,0.012,-0.965,0.002,0,0,0.965,0.399,0.006,0.359,-1.233,39.680584,-75.7523086,3.712,-0.01,0.01,0.61,-8957,11.764,0,0,7,134,32481,13990,0,0,0,1,0,0,0,0
17.7.2015,30:35.7,34,0.188,-0.76,176.763,0.349,-0.734,175.682,-52,-36,42,0.006,0.013,-0.965,0.002,0.001,-0.001,0.965,0.393,0.002,0.362,0.029,39.680584,-75.7523086,3.712,-0.01,0.01,0.61,-8957,11.761,0,0,7,132,32481,13990,0,0,0,1,0,0,0,0
17.7.2015,30:35.7,34,0.206,-0.787,176.74,0.206,-0.814,176.612,17,46,7,0.004,0.014,-0.963,-0.003,0.001,0.002,0.963,0.39,0.001,0.365,0.053,39.6805841,-75.7523086,3.71,0,0.01,0.61,-8957,11.759,0,0,7,134,32481,13990,0,0,0,1,0,0,0,0
17.7.2015,30:35.8,34,0.236,-0.799,176.722,0.252,-1.049,176.672,-7,7,-47,0.004,0.018,-0.964,-0.001,0.004,0.001,0.964,0.388,0,0.405,0.415,39.6805841,-75.7523086,3.71,0,0.01,0.61,-8957,11.766,0,0,7,133,32481,13990,0,0,0,1,0,0,0,0
17.7.2015,30:35.9,34,0.206,-0.824,176.673,0.252,-0.734,176.942,40,-15,-3,0.004,0.013,-0.964,0.001,-0.003,0.001,0.964,0.405,0.009,0.357,-1.454,39.6805841,-75.7523085,3.713,0.02,0.01,0.61,-8957,11.762,0,0,7,136,32481,13990,0,0,0,1,0,0,0,0
17.7.2015,30:36.0,34,0.243,-0.835,176.673,0.241,-0.871,176.782,-41,-10,-41,0.004,0.015,-0.963,-0.001,0,0.002,0.963,0.399,0.004,0.367,-0.016,39.6805841,-75.7523085,3.713,0.02,0.01,0.61,-8957,11.763,0,0,7,133,32481,13990,0,0,0,1,0,0,0,0
17.7.2015,30:36.1,34,0.243,-0.835,176.673,0.241,-0.871,176.782,-41,-10,-41,0.004,0.015,-0.963,-0.001,0,0.002,0.963,0.399,0.004,0.367,-0.016,39.6805841,-75.7523085,3.713,0.02,0.01,0.61,-8957,11.764,0,0,7,130,32481,13990,0,0,0,1,0,0,0,0
17.7.2015,30:36.1,34,0.275,-0.888,176.671,0.475,-1.043,176.942,-21,-25,-47,0.008,0.018,-0.964,0.003,0.001,0.001,0.964,0.392,0.003,0.371,0.047,39.6805841,-75.7523085,3.716,0,0,0.61,-8957,11.764,0,0,7,133,32481,13990,0,0,0,1,0,0,0,0
17.7.2015,30:36.2,34,0.304,-0.865,176.671,0.298,-0.659,176.122,17,-35,-27,0.005,0.011,-0.967,-0.003,-0.004,-0.001,0.967,0.392,0.003,0.463,0.945,39.6805841,-75.7523085,3.716,0,0,0.61,-8957,11.761,0,0,7,74,32481,13989,0,0,0,1,0,0,0,0
17.7.2015,30:36.3,34,0.278,-0.835,176.671,0.332,-0.825,176.942,14,9,-27,0.006,0.014,-0.963,0.001,0,0.002,0.963,0.402,0.008,0.473,1.044,39.6805841,-75.7523085,3.716,0,0,0.61,-8957,11.757,0,0,7,137,32481,13989,0,0,0,1,0,0,0,0
17.7.2015,30:36.4,34,0.3,-0.895,176.668,0.332,-1.106,176.832,10,9,14,0.006,0.019,-0.962,-0.002,0.003,0.002,0.962,0.395,0.003,0.361,0.052,39.6805842,-75.7523084,3.717,0,0.02,0.61,-8957,11.761,0,0,7,133,32481,13989,0,0,0,1,0,0,0,0
17.7.2015,30:36.5,34,0.302,-0.901,176.669,0.43,-0.871,177.112,-15,-1,9,0.007,0.015,-0.968,0,-0.001,-0.003,0.968,0.391,0.002,0.364,0.07,39.6805842,-75.7523084,3.717,0,0.02,0.61,-8957,11.763,0,0,7,133,32481,13989,0,0,0,1,0,0,0,0
17.7.2015,30:36.7,34,0.281,-0.919,176.666,0.252,-1.072,177.052,20,11,-10,0.004,0.019,-0.965,0,0.001,0,0.965,0.397,0.006,0.464,0.933,39.6805841,-75.7523084,3.725,-0.01,0,0.61,-8957,11.762,0,0,7,131,32481,13989,0,0,0,1,0,0,0,0
17.7.2015,30:36.7,34,0.267,-0.898,176.669,0.378,-0.9,176.942,-24,-27,57,0.007,0.016,-0.964,0.002,0,0.001,0.964,0.4,0.006,0.373,-0.882,39.6805841,-75.7523084,3.729,0,0.01,0.61,-8957,11.761,0,0,7,133,32481,13989,0,0,0,1,0,0,0,0
17.7.2015,30:36.8,34,0.296,-0.888,176.669,0.321,-0.98,176.942,12,28,1,0.006,0.017,-0.963,0,0.002,0.001,0.963,0.397,0.004,0.372,-0.01,39.6805841,-75.7523084,3.729,0,0.01,0.61,-8957,11.761,0,0,7,137,32481,13989,0,0,0,1,0,0,0,0
17.7.2015,30:36.9,34,0.296,-0.888,176.669,0.321,-0.98,176.942,12,28,1,0.006,0.017,-0.963,0,0.002,0.001,0.963,0.397,0.004,0.372,-0.01,39.6805841,-75.7523084,3.729,0,0.01,0.61,-8957,11.764,0,0,7,136,32481,13989,0,0,0,1,0,0,0,0
17.7.2015,30:36.9,34,0.296,-0.888,176.669,0.321,-0.98,176.942,12,28,1,0.006,0.017,-0.963,0,0.002,0.001,0.963,0.397,0.004,0.372,-0.01,39.6805841,-75.7523084,3.729,0,0.01,0.61,-8957,11.764,0,0,7,137,32481,13989,0,0,0,1,0,0,0,0
17.7.2015,30:37.0,34,0.296,-0.888,176.669,0.321,-0.98,176.942,12,28,1,0.006,0.017,-0.963,0,0.002,0.001,0.963,0.397,0.004,0.372,-0.01,39.6805841,-75.7523083,3.733,-0.01,-0.01,0.61,-8957,11.766,0,0,7,137,32481,13989,0,0,0,1,0,0,0,0
17.7.2015,30:37.1,34,0.382,-0.914,176.671,0.659,-0.843,177.002,-30,-5,-19,0.011,0.015,-0.965,0.004,-0.002,0.001,0.965,0.407,0.012,0.382,-1.004,39.6805841,-75.7523083,3.733,-0.01,-0.01,0.61,-8957,11.763,0,0,7,137,32481,13989,0,0,0,1,0,0,0,0
17.7.2015,30:37.2,34,0.403,-0.879,176.669,0.67,-0.808,177.002,34,6,-22,0.012,0.014,-0.968,0.003,-0.001,-0.003,0.968,0.402,0.009,0.369,-1.368,39.6805841,-75.7523083,3.733,-0.01,-0.01,0.61,-8957,11.762,0,0,7,134,32481,13988,0,0,0,1,0,0,0,0
17.7.2015,30:37.2,34,0.403,-0.879,176.669,0.67,-0.808,177.002,34,6,-22,0.012,0.014,-0.968,0.003,-0.001,-0.003,0.968,0.402,0.009,0.369,-1.368,39.6805841,-75.7523083,3.742,0,-0.01,0.61,-8957,11.761,0,0,7,134,32481,13988,0,0,0,1,0,0,0,0
17.7.2015,30:37.4,34,0.403,-0.879,176.669,0.67,-0.808,177.002,34,6,-22,0.012,0.014,-0.968,0.003,-0.001,-0.003,0.968,0.402,0.009,0.369,-1.368,39.6805841,-75.7523083,3.745,0,-0.02,0.61,-8957,11.761,0,0,7,134,32481,13988,0,0,0,1,0,0,0,0
17.7.2015,30:37.5,34,0.388,-0.883,176.724,0.412,-0.717,176.942,-23,11,20,0.007,0.013,-0.966,0.002,-0.002,-0.002,0.966,0.404,0.008,0.366,-0.946,39.6805841,-75.7523083,3.745,0,-0.02,0.61,-8957,11.761,0,0,7,132,32481,13987,0,0,0,1,0,0,0,0
17.7.2015,30:37.5,34,0.387,-0.854,176.732,0.223,-0.762,176.942,39,-4,-7,0.004,0.013,-0.966,-0.002,0,-0.002,0.966,0.4,0.006,0.371,-0.864,39.6805841,-75.7523082,3.747,-0.01,0,0.61,-8957,11.764,0,0,7,133,32481,13987,0,0,0,1,0,0,0,0
17.7.2015,30:37.6,34,0.387,-0.854,176.732,0.223,-0.762,176.942,39,-4,-7,0.004,0.013,-0.966,-0.002,0,-0.002,0.966,0.4,0.006,0.371,-0.864,39.6805841,-75.7523082,3.747,-0.01,0,0.61,-8957,11.765,0,0,7,133,32481,13987,0,0,0,1,0,0,0,0
17.7.2015,30:37.9,34,0.301,-0.82,176.755,0.04,-0.9,176.832,7,20,45,0.001,0.016,-0.963,-0.003,0.002,0.001,0.963,0.4,0.006,0.371,-0.889,39.6805841,-75.7523082,3.747,-0.01,0,0.61,-8957,11.762,0,0,7,133,32481,13987,0,0,0,1,0,0,0,0
17.7.2015,30:38.0,34,0.274,-0.827,176.751,0.235,-0.734,177.772,-13,14,2,0.004,0.013,-0.965,0.001,-0.001,0,0.965,0.392,0.002,0.361,-0.059,39.680584,-75.7523082,3.753,-0.01,-0.01,0.61,-8957,11.762,0,0,7,133,32481,13986,0,0,0,1,0,0,0,0
17.7.2015,30:38.1,34,0.277,-0.798,176.769,-0.057,-0.808,176.672,-60,34,-10,-0.001,0.014,-0.964,-0.004,0.003,0,0.964,0.389,0,0.363,0.03,39.680584,-75.7523082,3.753,-0.01,-0.01,0.61,-8957,11.764,0,0,7,135,32481,13986,0,0,0,1,0,0,0,0
17.7.2015,30:38.2,34,0.251,-0.817,176.77,0.16,-0.722,176.782,1,-26,-43,0.003,0.013,-0.963,0,-0.001,0.001,0.963,0.392,0.001,0.505,1.425,39.680584,-75.7523082,3.763,0,-0.02,0.61,-8957,11.76,0,0,7,117,32481,13986,0,0,0,1,0,0,0,0
17.7.2015,30:45.6,34,0.206,-0.781,176.766,0.218,-0.745,175.792,-19,-12,-21,0.004,0.013,-0.965,0.001,0.001,-0.001,0.965,0.407,0.009,0.369,-1.369,39.680584,-75.7523082,3.763,0,-0.02,0.61,-8957,11.763,0,0,7,135,32481,13986,0,0,0,1,0,0,0,0
17.7.2015,30:45.7,34,0.206,-0.781,176.766,0.218,-0.745,175.792,-19,-12,-21,0.004,0.013,-0.965,0.001,0.001,-0.001,0.965,0.407,0.009,0.369,-1.369,39.6805826,-75.7523111,4.008,-0.03,0.01,0.61,-8957,11.765,0,0,7,133,32481,13981,0,0,0,1,0,0,0,0
17.7.2015,30:45.7,34,0.206,-0.781,176.766,0.218,-0.745,175.792,-19,-12,-21,0.004,0.013,-0.965,0.001,0.001,-0.001,0.965,0.407,0.009,0.369,-1.369,39.6805825,-75.752311,4.007,0.02,-0.03,0.61,-8957,11.763,0,0,7,134,32481,13981,0,0,0,1,0,0,0,0
17.7.2015,30:45.8,34,0.712,-0.728,176.829,0.596,-0.567,176.832,37,30,-24,0.01,0.01,-0.964,-0.002,-0.001,0,0.964,0.39,0.003,0.367,0.018,39.6805825,-75.752311,4.007,0.02,-0.03,0.61,-8957,11.764,0,0,7,133,32481,13981,0,0,0,1,0,0,0,0
17.7.2015,30:45.9,34,0.655,-0.673,176.829,0.556,-0.762,176.392,-32,1,-40,0.01,0.013,-0.963,-0.001,0.003,0.001,0.963,0.387,0.002,0.443,0.795,39.6805825,-75.752311,4.016,0.01,0.02,0.61,-8957,11.764,0,0,7,136,32481,13981,0,0,0,1,0,0,0,0
17.7.2015,30:46.0,34,0.66,-0.702,176.829,0.653,-0.831,176.672,-43,20,-28,0.011,0.015,-0.964,0,0.001,-0.001,0.964,0.394,0.005,0.446,0.913,39.6805825,-75.752311,4.016,0.01,0.02,0.61,-8957,11.761,0,0,7,137,32481,13980,0,0,0,1,0,0,0,0
17.7.2015,30:46.0,34,0.66,-0.733,176.827,0.911,-0.831,176.672,-15,-33,-4,0.016,0.015,-0.966,0.004,0,-0.002,0.966,0.392,0.005,0.361,-0.873,39.6805825,-75.752311,4.016,0.01,0.02,0.61,-8957,11.764,0,0,7,131,32481,13980,0,0,0,1,0,0,0,0
17.7.2015,30:46.1,34,0.677,-0.765,176.827,0.59,-0.814,177.492,-22,7,-29,0.01,0.014,-0.965,-0.002,0,0,0.965,0.39,0.004,0.373,0.128,39.6805825,-75.752311,4.016,0.01,0.02,0.61,-8957,11.765,0,0,7,135,32481,13980,0,0,0,1,0,0,0,0
17.7.2015,30:46.2,34,0.677,-0.765,176.827,0.59,-0.814,177.492,-22,7,-29,0.01,0.014,-0.965,-0.002,0,0,0.965,0.39,0.004,0.373,0.128,39.6805823,-75.7523111,4.025,-0.01,-0.03,0.61,-8957,11.761,0,0,7,131,32481,13980,0,0,0,1,0,0,0,0
17.7.2015,30:46.2,34,0.701,-0.765,176.841,0.596,-0.653,176.012,70,36,-24,0.01,0.011,-0.962,-0.004,-0.002,0.003,0.962,0.386,0.003,0.367,-0.103,39.6805823,-75.7523111,4.025,-0.01,-0.03,0.61,-8957,11.764,0,0,7,132,32481,13980,0,0,0,1,0,0,0,0
17.7.2015,30:46.3,34,0.671,-0.753,176.843,0.378,-0.825,176.672,9,-42,90,0.007,0.014,-0.963,-0.004,0.001,0.001,0.963,0.389,0.003,0.498,1.273,39.6805824,-75.7523111,4.021,0,0.02,0.61,-8957,11.762,0,0,7,115,32481,13978,0,0,0,1,0,0,0,0
17.7.2015,30:46.4,34,0.641,-0.743,176.846,0.579,-0.831,175.842,21,-18,5,0.01,0.015,-0.964,0,0.002,0,0.964,0.402,0.01,0.499,1.309,39.6805824,-75.7523111,4.021,0,0.02,0.61,-8957,11.763,0,0,7,132,32481,13978,0,0,0,1,0,0,0,0
17.7.2015,30:46.4,34,0.614,-0.766,176.828,0.527,-0.785,175.952,-5,23,7,0.009,0.014,-0.963,-0.001,0,0.002,0.963,0.403,0.01,0.365,-1.33,39.6805824,-75.7523111,4.021,0,0.02,0.61,-8957,11.763,0,0,7,131,32481,13978,0,0,0,1,0,0,0,0
17.7.2015,30:46.5,34,0.584,-0.759,176.811,0.43,-0.843,176.612,20,8,-4,0.007,0.015,-0.97,-0.001,0.002,-0.005,0.97,0.399,0.009,0.363,-0.251,39.6805824,-75.7523111,4.021,0,0.02,0.61,-8957,11.765,0,0,7,135,32481,13978,0,0,0,1,0,0,0,0
17.7.2015,30:46.6,34,0.549,-0.767,176.807,0.395,-0.676,176.722,-32,-1,12,0.007,0.012,-0.964,0,-0.001,0.002,0.964,0.396,0.008,0.369,0.017,39.6805822,-75.7523111,4.052,0.01,0.01,0.61,-8957,11.764,0,0,7,131,32481,13978,0,0,0,1,0,0,0,0
17.7.2015,30:46.6,34,0.515,-0.746,176.778,0.241,-0.78,176.892,-53,-15,52,0.004,0.014,-0.965,-0.001,0.001,0,0.965,0.393,0.006,0.363,-0.085,39.6805822,-75.7523111,4.052,0.01,0.01,0.61,-8957,11.761,0,0,7,133,32481,13978,0,0,0,1,0,0,0,0
17.7.2015,30:46.7,34,0.493,-0.76,176.781,0.624,-0.55,176.672,40,4,5,0.011,0.01,-0.962,0.007,-0.003,0.001,0.962,0.391,0.003,0.444,0.834,39.6805822,-75.7523111,4.052,0.01,0.01,0.61,-8957,11.764,0,0,7,133,32481,13978,0,0,0,1,0,0,0,0
17.7.2015,30:46.8,34,0.517,-0.748,176.779,0.561,-0.653,176.612,27,-10,7,0.01,0.011,-0.962,0.003,-0.001,0.001,0.962,0.402,0.009,0.461,0.954,39.6805821,-75.7523111,4.085,-0.02,-0.01,0.61,-8957,11.763,0,0,7,133,32481,13978,0,0,0,1,0,0,0,0
17.7.2015,30:46.8,34,0.491,-0.73,176.78,0.08,-0.653,176.722,49,102,-4,0.001,0.011,-0.963,-0.003,-0.001,0.001,0.963,0.4,0.008,0.364,-1.014,39.6805821,-75.7523111,4.085,-0.02,-0.01,0.61,-8957,11.764,0,0,7,134,32481,13978,0,0,0,1,0,0,0,0
17.7.2015,30:46.9,34,0.46,-0.705,176.779,0.092,-0.768,175.792,39,-38,-2,0.002,0.013,-0.962,-0.002,0.002,0.001,0.962,0.396,0.005,0.363,-0.015,39.6805821,-75.7523111,4.085,-0.02,-0.01,0.61,-8957,11.766,0,0,7,133,32481,13978,0,0,0,1,0,0,0,0
17.7.2015,30:47.0,34,0.428,-0.725,176.739,0.315,-0.642,176.672,-16,-10,20,0.005,0.011,-0.962,0.001,-0.001,0.001,0.962,0.392,0.004,0.355,-0.061,39.6805819,-75.7523111,4.115,0.01,0.01,0.61,-8957,11.764,0,0,7,133,32481,13978,0,0,0,1,0,0,0,0
17.7.2015,30:47.1,34,0.447,-0.745,176.738,0.607,-0.888,176.722,-51,0,31,0.011,0.015,-0.964,0.004,0.002,-0.001,0.964,0.389,0.002,0.47,1.159,39.6805819,-75.7523111,4.115,0.01,0.01,0.61,-8957,11.764,0,0,7,134,32481,13978,0,0,0,1,0,0,0,0
17.7.2015,30:47.2,34,0.447,-0.763,176.738,0.447,-0.705,176.722,-69,-28,-17,0.008,0.012,-0.96,0,-0.002,0.004,0.96,0.398,0.007,0.468,1.059,39.6805818,-75.752311,4.139,0.02,0.01,0.61,-8957,11.762,0,0,7,133,32481,13978,0,0,0,1,0,0,0,0
17.7.2015,30:47.2,34,0.476,-0.752,176.738,0.401,-0.814,176.672,-3,17,37,0.007,0.014,-0.964,-0.002,0.001,-0.001,0.964,0.396,0.005,0.362,-1.052,39.6805818,-75.752311,4.139,0.02,0.01,0.61,-8957,11.765,0,0,7,137,32481,13978,0,0,0,1,0,0,0,0
17.7.2015,30:47.3,34,0.445,-0.732,176.738,0.183,-0.545,175.732,6,1,-13,0.003,0.009,-0.967,-0.004,-0.003,-0.004,0.967,0.392,0.004,0.357,-0.061,39.6805818,-75.752311,4.139,0.02,0.01,0.61,-8957,11.764,0,0,7,138,32481,13978,0,0,0,1,0,0,0,0
17.7.2015,30:47.4,34,0.423,-0.702,176.71,0.384,-0.424,176.722,40,0,54,0.007,0.007,-0.962,0,-0.004,0.002,0.962,0.389,0.002,0.363,0.043,39.6805817,-75.752311,4.171,-0.03,-0.01,0.61,-8957,11.765,0,0,7,132,32481,13978,0,0,0,1,0,0,0,0
17.7.2015,30:47.4,34,0.396,-0.688,176.695,0.298,-0.676,176.282,25,8,41,0.005,0.012,-0.966,0,0.002,-0.001,0.966,0.386,0.002,0.363,0.048,39.6805817,-75.752311,4.171,-0.03,-0.01,0.61,-8957,11.764,0,0,7,134,32481,13978,0,0,0,1,0,0,0,0
17.7.2015,30:47.5,34,0.389,-0.681,176.679,0.395,-0.751,176.282,-42,-26,24,0.007,0.013,-0.965,0.001,0.003,0,0.965,0.391,0.005,0.471,1.1,39.6805816,-75.7523109,4.199,0.01,0.03,0.61,-8957,11.765,0,0,7,130,32481,13977,0,0,0,1,0,0,0,0
17.7.2015,30:47.6,34,0.359,-0.713,176.667,0.315,-0.785,176.562,-72,-11,-20,0.005,0.014,-0.964,0,0,0.001,0.964,0.4,0.009,0.415,-0.042,39.6805816,-75.7523109,4.199,0.01,0.03,0.61,-8957,11.766,0,0,7,134,32481,13977,0,0,0,1,0,0,0,0
17.7.2015,30:47.6,34,0.359,-0.713,176.667,0.315,-0.785,176.562,-72,-11,-20,0.005,0.014,-0.964,0,0,0.001,0.964,0.4,0.009,0.415,-0.042,39.6805816,-75.7523109,4.199,0.01,0.03,0.61,-8957,11.766,0,0,7,134,32481,13977,0,0,0,1,0,0,0,0
17.7.2015,30:47.7,34,0.291,-0.722,176.613,0.206,-0.768,176.502,8,-9,25,0.004,0.013,-0.965,0.001,0.001,0.001,0.965,0.391,0.005,0.358,-0.015,39.6805816,-75.7523109,4.199,0.01,0.03,0.61,-8957,11.762,0,0,7,132,32481,13977,0,0,0,1,0,0,0,0
17.7.2015,30:47.8,34,0.268,-0.727,176.615,0.092,-0.722,176.502,-7,9,47,0.002,0.013,-0.964,-0.001,0,0.001,0.964,0.388,0.003,0.368,0.154,39.6805815,-75.7523109,4.224,0,0.02,0.61,-8957,11.764,0,0,7,136,32481,13977,0,0,0,1,0,0,0,0
17.7.2015,30:47.8,34,0.253,-0.694,176.612,0.298,-0.579,175.512,-37,40,11,0.005,0.01,-0.963,0.002,0,0.002,0.963,0.386,0.002,0.367,0.103,39.6805815,-75.7523109,4.224,0,0.02,0.61,-8957,11.764,0,0,7,135,32481,13977,0,0,0,1,0,0,0,0
17.7.2015,30:47.9,34,0.244,-0.668,176.594,-0.006,-0.734,176.342,28,18,-29,0,0.013,-0.967,-0.003,0.003,-0.002,0.967,0.396,0.007,0.496,1.278,39.6805814,-75.7523108,4.246,0,0.01,0.61,-8957,11.761,0,0,7,133,32481,13978,0,0,0,1,0,0,0,0
17.7.2015,30:48.0,34,0.203,-0.71,176.588,-0.212,-0.888,176.502,-35,24,35,-0.004,0.015,-0.965,-0.005,0.002,0.001,0.965,0.402,0.011,0.363,-1.313,39.6805814,-75.7523108,4.246,0,0.01,0.61,-8957,11.762,0,0,7,135,32481,13978,0,0,0,1,0,0,0,0
17.7.2015,30:48.1,34,0.173,-0.738,176.568,0.046,-0.734,175.682,-31,-6,0,0.001,0.013,-0.968,0.001,-0.001,-0.003,0.968,0.398,0.008,0.356,-0.417,39.6805814,-75.7523108,4.246,0,0.01,0.61,-8957,11.764,0,0,7,135,32481,13978,0,0,0,1,0,0,0,0
17.7.2015,30:48.1,34,0.142,-0.705,176.549,-0.023,-0.705,176.612,5,16,27,0,0.012,-0.965,0,-0.001,0.001,0.965,0.394,0.007,0.359,-0.005,39.6805814,-75.7523108,4.246,0,0.01,0.61,-8957,11.765,0,0,7,135,32481,13978,0,0,0,1,0,0,0,0
17.7.2015,30:48.2,34,0.112,-0.702,176.549,-0.12,-0.596,176.502,36,21,-37,-0.002,0.01,-0.964,0,-0.002,0.002,0.964,0.391,0.004,0.368,0.112,39.6805813,-75.7523108,4.264,0,-0.01,0.61,-8957,11.764,0,0,7,132,32481,13978,0,0,0,1,0,0,0,0
17.7.2015,30:48.2,34,0.08,-0.694,176.548,-0.235,-0.78,176.282,-56,36,-8,-0.004,0.014,-0.967,-0.001,0.002,-0.001,0.967,0.403,0.011,0.749,3.85,39.6805813,-75.7523108,4.264,0,-0.01,0.61,-8957,11.765,0,0,7,118,32481,13977,0,0,0,1,0,0,0,0
17.7.2015,30:48.3,34,0.05,-0.682,176.511,-0.309,-0.676,176.172,-52,1,-3,-0.005,0.012,-0.967,-0.001,0.001,0,0.967,0.443,0.033,0.745,3.788,39.6805812,-75.7523107,4.281,0.01,0,0.61,-8957,11.764,0,0,7,135,32481,13977,0,0,0,1,0,0,0,0
17.7.2015,30:48.4,34,0.019,-0.654,176.499,-0.413,-0.481,176.282,10,7,-53,-0.007,0.008,-0.966,-0.003,-0.002,0.001,0.966,0.447,0.035,0.362,-3.888,39.6805812,-75.7523107,4.281,0.01,0,0.61,-8957,11.76,0,0,7,132,32481,13977,0,0,0,1,0,0,0,0
17.7.2015,30:48.4,34,-0.012,-0.657,176.464,-0.372,-0.825,176.282,-6,11,43,-0.006,0.014,-0.969,-0.002,0.003,-0.001,0.969,0.439,0.03,0.361,-0.082,39.6805812,-75.7523107,4.281,0.01,0,0.61,-8957,11.764,0,0,7,136,32481,13977,0,0,0,1,0,0,0,0
17.7.2015,30:48.5,34,-0.043,-0.672,176.456,-0.424,-0.562,176.282,-40,-28,4,-0.007,0.01,-0.968,-0.002,-0.002,-0.001,0.968,0.433,0.025,0.367,0.059,39.6805812,-75.7523107,4.281,0.01,0,0.61,-8957,11.764,0,0,7,133,32481,13977,0,0,0,1,0,0,0,0
17.7.2015,30:48.6,34,-0.098,-0.629,176.452,-0.47,-0.436,176.392,23,7,58,-0.008,0.008,-0.971,0,-0.003,-0.002,0.971,0.422,0.02,0.384,0.151,39.6805811,-75.7523106,4.287,0.01,-0.01,0.61,-8957,11.764,0,0,7,134,32481,13978,0,0,0,1,0,0,0,0
17.7.2015,30:48.7,34,-0.129,-0.605,176.445,-0.47,-0.315,177.052,46,13,-34,-0.008,0.005,-0.966,0,-0.004,0.003,0.966,0.427,0.022,0.462,0.982,39.6805811,-75.7523106,4.287,0.01,-0.01,0.61,-8957,11.762,0,0,7,134,32481,13978,0,0,0,1,0,0,0,0
17.7.2015,30:48.7,34,-0.159,-0.594,176.451,-0.78,-0.55,175.172,-15,39,-23,-0.014,0.01,-0.967,-0.005,0.001,0.001,0.967,0.428,0.022,0.362,-0.955,39.680581,-75.7523105,4.297,0,0,0.61,-8957,11.765,0,0,7,134,32481,13978,0,0,0,1,0,0,0,0
17.7.2015,30:48.8,34,-0.193,-0.602,176.434,-0.613,-0.78,176.122,-12,1,-19,-0.011,0.014,-0.969,-0.001,0.002,-0.002,0.97,0.422,0.017,0.367,-0.928,39.680581,-75.7523105,4.297,0,0,0.61,-8957,11.764,0,0,7,133,32481,13978,0,0,0,1,0,0,0,0
17.7.2015,30:48.9,34,-0.227,-0.585,176.418,-0.653,-0.178,175.952,-33,35,26,-0.011,0.003,-0.971,-0.001,-0.006,-0.001,0.971,0.416,0.015,0.36,-0.016,39.680581,-75.7523105,4.297,0,0,0.61,-8957,11.76,0,0,7,135,32481,13978,0,0,0,1,0,0,0,0
17.7.2015,30:48.9,34,-0.269,-0.542,176.381,-0.648,-0.395,175.952,26,-5,23,-0.011,0.007,-0.97,0,-0.001,0,0.97,0.408,0.01,0.36,-0.039,39.680581,-75.7523104,4.306,0,0.01,0.61,-8957,11.765,0,0,7,134,32481,13978,0,0,0,1,0,0,0,0
17.7.2015,30:49.0,34,-0.299,-0.511,176.332,-0.711,-0.344,175.842,57,-16,-51,-0.012,0.006,-0.969,-0.001,-0.001,0,0.969,0.407,0.008,0.496,1.366,39.680581,-75.7523104,4.306,0,0.01,0.61,-8957,11.763,0,0,7,80,32481,13979,0,0,0,1,0,0,0,0
17.7.2015,30:49.1,34,-0.334,-0.483,176.286,-0.888,-0.516,175.682,29,-11,5,-0.015,0.009,-0.967,-0.002,0.002,0.002,0.967,0.418,0.015,0.501,1.373,39.680581,-75.7523104,4.306,0,0.01,0.61,-8957,11.764,0,0,7,134,32481,13979,0,0,0,1,0,0,0,0
17.7.2015,30:49.1,34,-0.364,-0.51,176.249,-1.02,-0.613,175.902,-13,13,-9,-0.018,0.011,-0.968,-0.004,0.002,0.001,0.968,0.419,0.014,0.366,-1.36,39.6805809,-75.7523103,4.313,0,0.01,0.61,-8957,11.762,0,0,7,132,32481,13979,0,0,0,1,0,0,0,0
17.7.2015,30:49.2,34,-0.399,-0.542,176.235,-0.906,-0.608,175.792,-6,-6,-11,-0.016,0.011,-0.971,-0.001,0.001,-0.002,0.971,0.414,0.012,0.366,-0.244,39.6805809,-75.7523103,4.313,0,0.01,0.61,-8957,11.762,0,0,7,133,32481,13979,0,0,0,1,0,0,0,0
17.7.2015,30:49.3,34,-0.434,-0.53,176.174,-0.951,-0.545,174.942,-25,11,-64,-0.017,0.009,-0.972,0,0,-0.003,0.972,0.409,0.009,0.365,-0.029,39.6805809,-75.7523103,4.313,0,0.01,0.61,-8957,11.764,0,0,7,134,32481,13979,0,0,0,1,0,0,0,0
17.7.2015,30:49.4,34,-0.474,-0.54,176.119,-0.969,-0.642,176.672,22,-27,-82,-0.017,0.011,-0.97,-0.001,0.002,0,0.97,0.403,0.007,0.371,0.046,39.6805809,-75.7523102,4.33,-0.02,0.02,0.61,-8957,11.764,0,0,7,131,32481,13979,0,0,0,1,0,0,0,0
17.7.2015,30:49.4,34,-0.504,-0.542,176.108,-0.906,-0.78,175.732,27,-23,21,-0.016,0.014,-0.967,0.002,0.004,0.003,0.967,0.404,0.006,0.456,0.874,39.6805809,-75.7523102,4.33,-0.02,0.02,0.61,-8957,11.762,0,0,7,119,32481,13979,0,0,0,1,0,0,0,0
17.7.2015,30:49.5,34,-0.536,-0.573,176.091,-0.745,-0.808,175.732,-5,17,-3,-0.013,0.014,-0.967,0.004,0.003,0.001,0.968,0.41,0.008,0.449,0.801,39.6805809,-75.7523102,4.33,-0.02,0.02,0.61,-8957,11.766,0,0,7,137,32481,13979,0,0,0,1,0,0,0,0
17.7.2015,30:49.6,34,-0.553,-0.572,176.051,-0.487,-0.625,175.842,-35,31,-5,-0.009,0.011,-0.965,0.007,0.001,0.003,0.965,0.407,0.004,0.362,-0.938,39.6805809,-75.7523101,4.325,0.02,-0.02,0.61,-8957,11.762,0,0,7,133,32481,13979,0,0,0,1,0,0,0,0
17.7.2015,30:49.6,34,-0.576,-0.581,176.044,-0.843,-0.424,175.842,-2,-3,-29,-0.015,0.007,-0.966,0,-0.003,0.001,0.966,0.402,0.001,0.361,0.003,39.6805809,-75.7523101,4.325,0.02,-0.02,0.61,-8957,11.764,0,0,7,132,32481,13979,0,0,0,1,0,0,0,0
17.7.2015,30:49.7,34,-0.61,-0.58,176.034,-0.665,-0.659,175.792,-39,56,-22,-0.012,0.011,-0.966,0.004,0.001,0,0.966,0.397,-0.001,0.362,-0.036,39.6805809,-75.7523101,4.325,0.02,-0.02,0.61,-8957,11.763,0,0,7,133,32481,13979,0,0,0,1,0,0,0,0
17.7.2015,30:49.8,34,-0.614,-0.603,176.025,-0.533,-0.825,176.062,59,-1,26,-0.009,0.014,-0.964,0.005,0.001,0.001,0.964,0.394,-0.003,0.371,0.124,39.6805808,-75.75231,4.328,-0.01,-0.03,0.61,-8957,11.764,0,0,7,134,32481,13979,0,0,0,1,0,0,0,0
17.7.2015,30:49.8,34,-0.598,-0.592,176.016,-0.682,-0.436,175.842,-2,36,-21,-0.012,0.008,-0.969,0,-0.003,-0.003,0.969,0.401,0.001,0.501,1.302,39.6805808,-75.75231,4.328,-0.01,-0.03,0.61,-8957,11.765,0,0,7,134,32481,13978,0,0,0,1,0,0,0,0
17.7.2015,30:49.9,34,-0.608,-0.582,175.991,-0.665,-0.596,175.002,9,-56,10,-0.012,0.01,-0.968,0.001,0,-0.003,0.968,0.41,0.006,0.369,-1.244,39.6805808,-75.7523099,4.327,0,-0.01,0.61,-8957,11.761,0,0,7,133,32481,13978,0,0,0,1,0,0,0,0
17.7.2015,30:50.0,34,-0.609,-0.579,175.945,-0.585,-0.642,175.902,36,-19,-23,-0.01,0.011,-0.965,0.001,0.001,0.001,0.965,0.405,0.004,0.363,-1.365,39.6805808,-75.7523099,4.327,0,-0.01,0.61,-8957,11.761,0,0,7,134,32481,13978,0,0,0,1,0,0,0,0
17.7.2015,30:50.0,34,-0.578,-0.571,175.943,-0.504,-0.39,176.612,41,2,3,-0.009,0.007,-0.966,0,-0.003,0,0.966,0.4,0.001,0.359,0.017,39.6805808,-75.7523099,4.327,0,-0.01,0.61,-8957,11.765,0,0,7,136,32481,13978,0,0,0,1,0,0,0,0
17.7.2015,30:50.1,34,-0.592,-0.545,175.941,-0.825,-0.487,175.842,-11,-22,-11,-0.014,0.009,-0.97,-0.004,-0.001,-0.003,0.97,0.395,0,0.369,0.075,39.6805808,-75.7523099,4.327,0,-0.01,0.61,-8957,11.764,0,0,7,130,32481,13978,0,0,0,1,0,0,0,0
17.7.2015,30:50.1,34,-0.597,-0.523,175.942,-0.631,-0.481,175.842,-28,-3,-8,-0.011,0.008,-0.97,-0.001,0,-0.002,0.97,0.392,-0.001,0.369,0.095,39.6805808,-75.7523098,4.328,-0.01,0,0.61,-8957,11.76,0,0,7,133,32481,13978,0,0,0,1,0,0,0,0
17.7.2015,30:50.3,34,-0.651,-0.543,175.929,-0.613,-0.436,175.002,10,-3,52,-0.011,0.008,-0.97,0.002,-0.002,-0.002,0.97,0.402,0.004,0.366,-0.905,39.6805807,-75.7523097,4.339,0.02,0,0.61,-8957,11.764,0,0,7,138,32481,13979,1,0,0,1,0,0,0,0
17.7.2015,30:50.4,34,-0.658,-0.544,175.917,-0.631,-0.533,175.792,-11,20,-49,-0.011,0.009,-0.97,0.001,0,-0.001,0.97,0.397,0.001,0.363,-0.676,39.6805807,-75.7523097,4.339,0.02,0,0.61,-8957,11.764,0,0,7,136,32481,13979,1,0,0,1,0,0,0,0
17.7.2015,30:50.4,34,-0.677,-0.574,175.902,-0.814,-0.671,174.892,-12,-3,-9,-0.014,0.012,-0.966,-0.002,0.001,0.002,0.966,0.393,-0.001,0.355,-0.069,39.6805807,-75.7523097,4.339,0.02,0,0.61,-8957,11.76,0,0,7,135,32481,13979,1,0,0,1,0,0,0,0
17.7.2015,30:50.5,34,-0.705,-0.589,175.891,-0.86,-0.332,175.682,25,-6,40,-0.015,0.006,-0.968,0.001,-0.005,-0.001,0.968,0.388,-0.003,0.356,-0.032,39.6805807,-75.7523097,4.339,0.02,0,0.61,-8957,11.764,0,0,7,132,32481,13979,1,0,0,1,0,0,0,0
17.7.2015,30:50.6,34,-0.701,-0.565,175.886,-0.871,-0.642,175.732,-5,-24,3,-0.015,0.011,-0.97,0,0.001,-0.002,0.97,0.385,-0.004,0.399,0.466,39.6805807,-75.7523096,4.344,-0.01,0,0.61,-8957,11.763,0,0,7,135,32481,13979,1,0,0,1,0,0,0,0
17.7.2015,30:50.6,34,-0.725,-0.559,175.843,-0.648,-0.504,175.732,23,-10,35,-0.011,0.009,-0.97,0.004,-0.001,-0.001,0.97,0.397,0.002,0.502,1.439,39.6805807,-75.7523096,4.344,-0.01,0,0.61,-8957,11.764,0,0,7,134,32481,13979,1,0,0,1,0,0,0,0
17.7.2015,30:50.7,34,-0.724,-0.524,175.838,-0.814,-0.516,174.892,-20,37,-10,-0.014,0.009,-0.971,0,0,-0.001,0.971,0.403,0.006,0.362,-1.386,39.6805807,-75.7523096,4.344,-0.01,0,0.61,-8957,11.764,0,0,7,132,32481,13979,1,0,0,1,0,0,0,0
17.7.2015,30:50.8,34,-0.739,-0.495,175.811,-0.774,-0.39,175.622,16,22,18,-0.013,0.007,-0.969,0.001,0,0,0.969,0.399,0.003,0.369,-1.327,39.6805806,-75.7523095,4.338,-0.01,-0.01,0.61,-8957,11.762,0,0,7,133,32481,13979,1,0,0,1,0,0,0,0
17.7.2015,30:50.9,34,-0.784,-0.484,175.804,-0.86,-0.653,175.622,5,-13,34,-0.015,0.011,-0.967,0,0.004,0.002,0.967,0.389,0,0.364,0.037,39.6805805,-75.7523094,4.33,-0.03,-0.02,0.61,-8957,11.765,0,0,7,132,32481,13979,1,0,0,1,0,0,0,0
17.7.2015,30:51.0,34,-0.784,-0.484,175.804,-0.86,-0.653,175.622,5,-13,34,-0.015,0.011,-0.967,0,0.004,0.002,0.967,0.389,0,0.364,0.037,39.6805805,-75.7523094,4.33,-0.03,-0.02,0.61,-8957,11.763,0,0,7,117,32481,13980,1,0,0,1,0,0,0,0
17.7.2015,30:51.0,34,-0.834,-0.488,175.789,-0.969,-0.642,175.512,0,18,-3,-0.017,0.011,-0.969,-0.001,0.003,-0.001,0.969,0.397,0.002,0.467,1.085,39.6805805,-75.7523094,4.33,-0.03,-0.02,0.61,-8957,11.763,0,0,7,133,32481,13980,1,0,0,1,0,0,0,0
17.7.2015,30:51.1,34,-0.865,-0.489,175.784,-0.974,-0.269,175.572,30,14,-38,-0.017,0.005,-0.97,0,-0.003,-0.001,0.97,0.397,0.002,0.354,-1.075,39.6805805,-75.7523093,4.33,0,0.01,0.61,-8957,11.762,0,0,7,134,32481,13980,1,0,0,1,0,0,0,0
17.7.2015,30:51.2,34,-0.884,-0.438,175.756,-1.049,-0.504,175.512,-1,14,6,-0.018,0.009,-0.971,-0.002,0.002,-0.001,0.971,0.389,0,0.358,0.008,39.6805805,-75.7523093,4.33,0,0.01,0.61,-8957,11.763,0,0,7,134,32481,13980,1,0,0,1,0,0,0,0
17.7.2015,30:51.3,34,-0.916,-0.467,175.741,-0.951,-0.636,175.572,-10,25,29,-0.017,0.011,-0.968,0.002,0.003,0.002,0.968,0.385,-0.001,0.359,-0.068,39.6805805,-75.7523093,4.33,0,0.01,0.61,-8957,11.764,0,0,7,133,32481,13980,1,0,0,1,0,0,0,0
17.7.2015,30:51.4,34,-0.959,-0.457,175.737,-1.261,-0.441,176.342,4,28,-9,-0.022,0.008,-0.972,-0.003,0,-0.002,0.972,0.385,-0.001,0.467,1.09,39.6805804,-75.7523092,4.324,0.01,-0.01,0.61,-8957,11.764,0,0,7,105,32481,13980,1,0,0,1,0,0,0,0
17.7.2015,30:51.5,34,-0.991,-0.426,175.736,-1.152,-0.395,175.572,-3,19,-5,-0.02,0.007,-0.972,-0.001,0,-0.001,0.972,0.395,0.004,0.469,1.012,39.6805804,-75.7523092,4.324,0.01,-0.01,0.61,-8957,11.764,0,0,7,133,32481,13980,1,0,0,1,0,0,0,0
17.7.2015,30:51.5,34,-1.022,-0.41,175.736,-1.312,-0.315,175.512,11,-5,28,-0.023,0.005,-0.971,-0.001,-0.001,-0.001,0.972,0.395,0.004,0.37,-0.94,39.6805804,-75.7523089,4.312,0.03,-0.01,0.61,-8957,11.764,0,0,7,133,32481,13980,1,0,0,1,0,0,0,0
17.7.2015,30:51.6,34,-1.055,-0.38,175.731,-1.106,-0.436,175.232,29,12,-29,-0.019,0.008,-0.971,0.001,0.002,0.001,0.971,0.392,0.002,0.361,-0.251,39.6805804,-75.7523089,4.312,0.03,-0.01,0.61,-8957,11.764,0,0,7,135,32481,13980,1,0,0,1,0,0,0,0
17.7.2015,30:51.6,34,-1.03,-0.413,175.717,-0.888,-0.567,175.512,31,-34,-17,-0.015,0.01,-0.975,0.004,0.002,-0.004,0.975,0.389,0,0.362,-0.016,39.6805804,-75.7523089,4.312,0.03,-0.01,0.61,-8957,11.764,0,0,7,136,32481,13980,1,0,0,1,0,0,0,0
17.7.2015,30:51.7,34,-1.05,-0.443,175.71,-1.129,-0.533,175.512,-41,13,-18,-0.02,0.009,-0.972,0,0,-0.001,0.972,0.386,0,0.362,-0.009,39.6805804,-75.7523089,4.312,0.03,-0.01,0.61,-8957,11.764,0,0,7,133,32481,13980,1,0,0,1,0,0,0,0
17.7.2015,30:51.8,34,-1.039,-0.459,175.71,-1.037,-0.424,175.452,54,-58,23,-0.018,0.007,-0.968,0.001,-0.001,0.004,0.968,0.385,0,0.443,0.763,39.6805803,-75.7523089,4.317,-0.02,0.02,0.61,-8957,11.763,0,0,7,77,32481,13981,1,0,0,1,0,0,0,0
17.7.2015,30:51.9,34,-1.062,-0.427,175.694,-0.986,-0.252,175.512,20,-33,6,-0.017,0.004,-0.973,0.002,-0.003,-0.001,0.973,0.396,0.003,0.462,0.954,39.6805803,-75.7523089,4.317,-0.02,0.02,0.61,-8957,11.764,0,0,7,134,32481,13981,1,0,0,1,0,0,0,0
17.7.2015,30:51.9,34,-1.046,-0.437,175.695,-0.831,-0.499,175.512,-40,-31,-35,-0.015,0.009,-0.97,0.004,0.001,0.002,0.97,0.395,0.002,0.368,-0.963,39.6805803,-75.7523087,4.312,0.01,0,0.61,-8957,11.764,0,0,7,134,32481,13981,1,0,0,1,0,0,0,0
17.7.2015,30:52.0,34,-1.015,-0.464,175.69,-0.877,-0.55,175.512,9,31,-41,-0.015,0.01,-0.969,0.002,0.001,0.002,0.969,0.392,0,0.367,-0.054,39.6805803,-75.7523087,4.312,0.01,0,0.61,-8957,11.764,0,0,7,132,32481,13981,1,0,0,1,0,0,0,0
17.7.2015,30:52.0,34,-1.015,-0.464,175.69,-0.877,-0.55,175.512,9,31,-41,-0.015,0.01,-0.969,0.002,0.001,0.002,0.969,0.392,0,0.367,-0.054,39.6805803,-75.7523087,4.312,0.01,0,0.61,-8957,11.764,0,0,7,135,32481,13981,1,0,0,1,0,0,0,0
17.7.2015,30:52.1,34,-1.006,-0.515,175.613,-1.1,-0.378,174.772,-2,-1,-41,-0.019,0.007,-0.967,-0.002,-0.004,0.002,0.967,0.387,-0.005,0.364,-0.064,39.6805803,-75.7523087,4.312,0.01,0,0.61,-8957,11.765,0,0,7,136,32481,13981,1,0,0,1,0,0,0,0
17.7.2015,30:52.2,34,-1.032,-0.509,175.61,-1.032,-0.395,175.572,-21,-18,24,-0.018,0.007,-0.971,0,-0.003,-0.001,0.971,0.388,-0.003,0.511,1.409,39.6805802,-75.7523085,4.309,0.02,0.03,0.61,-8957,11.765,0,0,7,107,32481,13982,1,0,0,1,0,0,0,0
17.7.2015,30:52.2,34,-1.032,-0.509,175.61,-1.032,-0.395,175.572,-21,-18,24,-0.018,0.007,-0.971,0,-0.003,-0.001,0.971,0.388,-0.003,0.511,1.409,39.6805802,-75.7523085,4.309,0.02,0.03,0.61,-8957,11.765,0,0,7,135,32481,13982,1,0,0,1,0,0,0,0
17.7.2015,30:52.3,34,-0.992,-0.473,175.583,-0.808,-0.55,174.832,-1,-28,-11,-0.014,0.01,-0.967,0.001,0.002,0.003,0.967,0.403,0.004,0.357,-1.602,39.6805802,-75.7523083,4.298,0.02,0.02,0.61,-8957,11.764,0,0,7,135,32481,13982,1,0,0,1,0,0,0,0
17.7.2015,30:52.4,34,-0.958,-0.502,175.565,-0.848,-0.762,174.892,10,21,5,-0.015,0.013,-0.968,-0.001,0.003,0.003,0.968,0.398,0.001,0.362,-0.132,39.6805802,-75.7523083,4.298,0.02,0.02,0.61,-8957,11.763,0,0,7,134,32481,13982,1,0,0,1,0,0,0,0
17.7.2015,30:52.5,34,-0.926,-0.533,175.548,-1.032,-0.653,175.622,-5,-6,0,-0.018,0.011,-0.97,-0.003,0.001,0.001,0.97,0.393,-0.002,0.361,0.016,39.6805802,-75.7523083,4.298,0.02,0.02,0.61,-8957,11.763,0,0,7,134,32481,13982,1,0,0,1,0,0,0,0
17.7.2015,30:52.5,34,-0.912,-0.541,175.547,-0.808,-0.39,175.732,-35,-16,-25,-0.014,0.007,-0.969,0.001,-0.003,0.001,0.969,0.389,-0.005,0.366,0.064,39.6805801,-75.7523083,4.303,-0.01,0,0.61,-8957,11.767,0,0,7,132,32481,13982,1,0,0,1,0,0,0,0
17.7.2015,30:52.6,34,-0.883,-0.507,175.55,-0.653,-0.413,175.732,-8,32,12,-0.011,0.007,-0.967,0.001,-0.002,0.003,0.967,0.396,-0.001,0.505,1.416,39.6805801,-75.7523083,4.303,-0.01,0,0.61,-8957,11.764,0,0,7,133,32481,13982,1,0,0,1,0,0,0,0
17.7.2015,30:52.7,34,-0.868,-0.51,175.553,-0.762,-0.481,175.732,-25,52,-36,-0.013,0.008,-0.967,0,-0.001,0.002,0.967,0.408,0.002,0.408,-0.568,39.6805801,-75.7523083,4.303,-0.01,0,0.61,-8957,11.765,0,0,7,131,32481,13982,1,0,0,1,0,0,0,0
17.7.2015,30:52.7,34,-0.837,-0.503,175.554,-0.636,-0.533,174.832,-30,-5,6,-0.011,0.009,-0.97,0.001,0,-0.001,0.97,0.403,0.001,0.364,-1.442,39.6805801,-75.7523081,4.295,0.03,0.01,0.61,-8957,11.765,0,0,7,133,32481,13982,1,0,0,1,0,0,0,0
17.7.2015,30:52.8,34,-0.797,-0.545,175.554,-0.493,-0.642,175.682,31,-19,-25,-0.009,0.011,-0.969,0,0.001,-0.001,0.969,0.398,-0.002,0.361,-0.071,39.6805801,-75.7523081,4.295,0.03,0.01,0.61,-8957,11.762,0,0,7,137,32481,13982,1,0,0,1,0,0,0,0
17.7.2015,30:52.8,34,-0.766,-0.527,175.554,-0.344,-0.458,176.452,5,4,25,-0.006,0.008,-0.968,0.003,-0.002,0.001,0.968,0.394,-0.004,0.369,0.031,39.6805801,-75.7523081,4.295,0.03,0.01,0.61,-8957,11.761,0,0,7,133,32481,13982,1,0,0,1,0,0,0,0
17.7.2015,30:52.9,34,-0.734,-0.52,175.554,-0.332,-0.625,175.732,1,9,-29,-0.006,0.011,-0.969,0.002,0.002,-0.001,0.969,0.391,-0.006,0.366,0.031,39.6805801,-75.752308,4.288,0,0.03,0.61,-8957,11.764,0,0,7,134,32481,13982,1,0,0,1,0,0,0,0
17.7.2015,30:53.0,34,-0.703,-0.517,175.552,-0.292,-0.545,175.732,8,66,12,-0.005,0.009,-0.968,0.001,0,-0.001,0.968,0.4,-0.001,0.507,1.398,39.6805801,-75.752308,4.288,0,0.03,0.61,-8957,11.764,0,0,7,133,32481,13981,1,0,0,1,0,0,0,0
17.7.2015,30:53.0,34,-0.672,-0.532,175.55,-0.309,-0.745,175.792,4,-12,39,-0.005,0.013,-0.964,0,0.003,0.003,0.964,0.408,0.002,0.368,-1.304,39.6805801,-75.752308,4.288,0,0.03,0.61,-8957,11.764,0,0,7,135,32481,13981,1,0,0,1,0,0,0,0
17.7.2015,30:53.1,34,-0.643,-0.562,175.548,-0.275,-0.734,175.792,-19,-4,-60,-0.005,0.013,-0.967,0.001,0.002,0.001,0.967,0.403,0,0.359,-1.487,39.6805801,-75.7523079,4.285,0.01,0.03,0.61,-8957,11.762,0,0,7,135,32481,13981,1,0,0,1,0,0,0,0
17.7.2015,30:53.2,34,-0.613,-0.593,175.548,-0.086,-0.659,175.792,28,-43,-29,-0.002,0.011,-0.965,0.003,0,0.001,0.965,0.398,-0.004,0.361,-0.029,39.6805801,-75.7523079,4.285,0.01,0.03,0.61,-8957,11.763,0,0,7,133,32481,13981,1,0,0,1,0,0,0,0
17.7.2015,30:53.2,34,-0.613,-0.593,175.548,-0.086,-0.659,175.792,28,-43,-29,-0.002,0.011,-0.965,0.003,0,0.001,0.965,0.398,-0.004,0.361,-0.029,39.6805801,-75.7523079,4.285,0.01,0.03,0.61,-8957,11.764,0,0,7,133,32481,13981,1,0,0,1,0,0,0,0
17.7.2015,30:53.3,34,-0.538,-0.625,175.563,-0.378,-0.745,176.122,-1,8,21,-0.007,0.013,-0.969,-0.002,0.001,-0.002,0.969,0.387,-0.008,0.37,0.113,39.6805801,-75.7523079,4.285,0.01,0.03,0.61,-8957,11.765,0,0,7,135,32481,13981,1,0,0,1,0,0,0,0
17.7.2015,30:53.4,34,-0.508,-0.622,175.599,-0.436,-0.413,176.122,58,-21,16,-0.008,0.007,-0.966,-0.003,-0.004,0.001,0.966,0.394,-0.004,0.465,1.129,39.6805801,-75.7523078,4.277,0,0,0.61,-8957,11.765,0,0,7,131,32481,13981,1,0,0,1,0,0,0,0
17.7.2015,30:53.5,34,-0.501,-0.628,175.634,-0.631,-0.608,176.782,36,14,51,-0.011,0.011,-0.969,-0.005,-0.001,-0.002,0.969,0.398,-0.001,0.367,-0.873,39.6805801,-75.7523078,4.277,0,0,0.61,-8957,11.763,0,0,7,134,32481,13981,1,0,0,1,0,0,0,0
17.7.2015,30:53.5,34,-0.529,-0.605,175.677,-0.516,-0.608,176.232,21,25,-2,-0.009,0.011,-0.968,-0.002,0,0,0.968,0.394,-0.003,0.365,-0.989,39.6805801,-75.7523078,4.277,0,0,0.61,-8957,11.764,0,0,7,132,32481,13981,1,0,0,1,0,0,0,0
17.7.2015,30:53.6,34,-0.507,-0.597,175.708,-0.2,-0.361,175.842,-16,-11,24,-0.004,0.006,-0.964,0.004,-0.002,0.004,0.964,0.389,-0.006,0.364,-0.007,39.6805801,-75.7523077,4.272,0,0.01,0.61,-8957,11.763,0,0,7,133,32481,13981,1,0,0,1,0,0,0,0
17.7.2015,30:53.7,34,-0.47,-0.557,175.704,-0.458,-0.395,175.842,12,2,6,-0.008,0.007,-0.968,0,-0.001,-0.002,0.968,0.385,-0.008,0.369,0.033,39.6805801,-75.7523077,4.272,0,0.01,0.61,-8957,11.763,0,0,7,132,32481,13981,1,0,0,1,0,0,0,0
17.7.2015,30:53.8,34,-0.464,-0.529,175.704,-0.55,-0.481,175.062,-62,8,-44,-0.01,0.008,-0.968,-0.002,0,-0.002,0.968,0.398,-0.001,0.531,1.632,39.6805801,-75.7523076,4.264,-0.01,0,0.61,-8957,11.764,0,0,7,134,32481,13979,1,0,0,1,0,0,0,0
17.7.2015,30:53.8,34,-0.495,-0.504,175.704,-0.751,-0.218,175.842,9,-31,22,-0.013,0.004,-0.965,-0.004,-0.004,0.001,0.965,0.408,0.004,0.375,-1.494,39.6805801,-75.7523076,4.264,-0.01,0,0.61,-8957,11.762,0,0,7,131,32481,13979,1,0,0,1,0,0,0,0
17.7.2015,30:53.9,34,-0.515,-0.506,175.705,-0.487,-0.59,175.842,40,-26,-16,-0.009,0.01,-0.972,0.002,0.002,-0.004,0.972,0.404,0.003,0.372,-1.573,39.6805801,-75.7523075,4.26,-0.01,-0.02,0.61,-8957,11.762,0,0,7,131,32481,13979,1,0,0,1,0,0,0,0
17.7.2015,30:54.2,34,-0.55,-0.543,175.7,-0.585,-0.487,175.842,63,-53,5,-0.01,0.009,-0.967,0.001,-0.001,0.001,0.967,0.4,0.001,0.374,0.058,39.6805801,-75.7523075,4.26,-0.01,-0.02,0.61,-8957,11.764,0,0,7,131,32481,13979,1,0,0,1,0,0,0,0
17.7.2015,30:54.2,34,-0.576,-0.527,175.699,-0.636,-0.653,175.952,77,36,-51,-0.011,0.011,-0.965,0,0.002,0.002,0.965,0.396,-0.001,0.37,-0.009,39.6805801,-75.7523075,4.26,-0.01,-0.02,0.61,-8957,11.764,0,0,7,134,32481,13979,1,0,0,1,0,0,0,0
17.7.2015,30:54.3,34,-0.566,-0.572,175.692,-0.39,-0.298,175.842,-70,-21,24,-0.007,0.005,-0.968,0.003,-0.005,-0.001,0.968,0.404,0.004,0.359,-1.305,39.6805801,-75.7523075,4.253,0,-0.01,0.61,-8957,11.764,0,0,7,136,32481,13981,1,0,0,1,0,0,0,0
17.7.2015,30:54.3,34,-0.532,-0.559,175.693,-0.298,-0.676,175.842,80,-9,12,-0.005,0.012,-0.968,0.003,0.002,0.001,0.968,0.399,0.002,0.358,-0.011,39.6805801,-75.7523074,4.247,0.01,0.01,0.61,-8957,11.764,0,0,7,136,32481,13981,1,0,0,1,0,0,0,0
17.7.2015,30:54.4,34,-0.523,-0.549,175.697,-0.504,-0.47,175.842,29,34,41,-0.009,0.008,-0.965,0,-0.001,0.002,0.965,0.394,-0.001,0.357,-0.022,39.6805801,-75.7523074,4.247,0.01,0.01,0.61,-8957,11.765,0,0,7,132,32481,13981,1,0,0,1,0,0,0,0
17.7.2015,30:54.5,34,-0.493,-0.519,175.696,-0.332,-0.487,175.842,26,45,0,-0.006,0.009,-0.965,0.001,0,0,0.965,0.39,-0.004,0.365,0.121,39.6805801,-75.7523074,4.247,0.01,0.01,0.61,-8957,11.76,0,0,7,131,32481,13981,1,0,0,1,0,0,0,0
17.7.2015,30:54.5,34,-0.463,-0.486,175.694,-0.47,-0.407,175.732,12,15,-25,-0.008,0.007,-0.966,-0.001,0,-0.001,0.966,0.392,-0.001,0.452,0.936,39.6805801,-75.7523073,4.239,-0.01,0,0.61,-8957,11.764,0,0,7,135,32481,13979,1,0,0,1,0,0,0,0
17.7.2015,30:54.7,34,-0.439,-0.441,175.692,-0.212,-0.458,174.892,-62,-15,-11,-0.004,0.008,-0.965,0.003,0.001,0.001,0.965,0.396,0,0.362,-0.891,39.6805801,-75.7523073,4.239,-0.01,0,0.61,-8957,11.765,0,0,7,134,32481,13979,1,0,0,1,0,0,0,0
17.7.2015,30:54.7,34,-0.407,-0.423,175.692,-0.424,-0.413,174.892,24,8,41,-0.007,0.007,-0.967,-0.002,0,0,0.966,0.392,0,0.367,0.056,39.6805802,-75.7523073,4.232,-0.01,0.01,0.61,-8957,11.764,0,0,7,135,32481,13979,1,0,0,1,0,0,0,0
17.7.2015,30:54.8,34,-0.414,-0.393,175.691,-0.2,-0.281,175.342,15,48,-26,-0.004,0.005,-0.966,0.002,0,0.001,0.966,0.389,-0.002,0.362,-0.026,39.6805802,-75.7523073,4.232,-0.01,0.01,0.61,-8957,11.764,0,0,7,131,32481,13979,1,0,0,1,0,0,0,0
17.7.2015,30:54.8,34,-0.385,-0.391,175.675,-0.309,-0.453,175.342,5,-24,5,-0.005,0.008,-0.962,-0.002,0.002,0.004,0.962,0.385,-0.005,0.36,-0.05,39.6805802,-75.7523073,4.232,-0.01,0.01,0.61,-8957,11.764,0,0,7,133,32481,13979,1,0,0,1,0,0,0,0
17.7.2015,30:54.9,34,-0.353,-0.403,175.652,-0.034,-0.413,176.562,43,-35,-63,-0.001,0.007,-0.965,0.004,-0.001,0,0.965,0.389,-0.003,0.508,1.494,39.6805802,-75.7523073,4.232,-0.01,0.01,0.61,-8957,11.762,0,0,7,116,32481,13980,1,0,0,1,0,0,0,0
17.7.2015,30:55.0,34,-0.346,-0.43,175.651,-0.298,-0.78,175.732,21,-20,39,-0.005,0.014,-0.963,0,0.005,0.003,0.963,0.403,0.004,0.515,1.554,39.6805802,-75.7523071,4.216,0.01,-0.02,0.62,-8957,11.764,0,0,7,132,32481,13980,1,0,0,1,0,0,0,0
17.7.2015,30:55.0,34,-0.32,-0.46,175.651,-0.166,-0.653,174.832,27,3,14,-0.003,0.011,-0.97,0.002,0.002,-0.004,0.97,0.402,0.005,0.371,-1.373,39.6805802,-75.7523071,4.216,0.01,-0.02,0.62,-8957,11.764,0,0,7,134,32481,13980,1,0,0,1,0,0,0,0
17.7.2015,30:55.1,34,-0.324,-0.491,175.65,-0.264,-0.55,175.622,1,-22,-25,-0.005,0.01,-0.968,0,-0.001,-0.001,0.968,0.398,0.004,0.354,-0.258,39.6805802,-75.752307,4.21,0.02,0,0.62,-8957,11.763,0,0,7,134,32481,13980,1,0,0,1,0,0,0,0
17.7.2015,30:55.2,34,-0.35,-0.498,175.65,-0.585,-0.458,175.682,-13,21,-11,-0.01,0.008,-0.967,-0.004,-0.001,0,0.967,0.393,0.001,0.358,-0.061,39.6805802,-75.752307,4.21,0.02,0,0.62,-8957,11.765,0,0,7,132,32481,13980,1,0,0,1,0,0,0,0
17.7.2015,30:55.3,34,-0.361,-0.489,175.653,-0.573,-0.458,174.942,-26,-3,52,-0.01,0.008,-0.967,-0.003,0,0,0.967,0.389,0,0.369,0.132,39.6805802,-75.752307,4.21,0.02,0,0.62,-8957,11.762,0,0,7,131,32481,13980,1,0,0,1,0,0,0,0
17.7.2015,30:55.3,34,-0.392,-0.477,175.654,-0.453,-0.453,174.942,20,30,23,-0.008,0.008,-0.961,0,0,0.004,0.961,0.398,0.003,0.51,1.416,39.6805802,-75.7523069,4.19,0,0.01,0.62,-8957,11.767,0,0,7,133,32481,13979,1,0,0,1,0,0,0,0
17.7.2015,30:55.4,34,-0.4,-0.446,175.655,-0.413,-0.378,175.732,0,-2,-16,-0.007,0.007,-0.967,0.002,0,-0.001,0.967,0.409,0.009,0.386,-1.08,39.6805802,-75.7523069,4.19,0,0.01,0.62,-8957,11.761,0,0,7,133,32481,13979,1,0,0,1,0,0,0,0
17.7.2015,30:55.5,34,-0.426,-0.425,175.654,-0.504,-0.063,174.892,-29,-50,-58,-0.009,0.001,-0.966,0,-0.006,0,0.966,0.405,0.008,0.367,-1.451,39.6805802,-75.7523069,4.19,0,0.01,0.62,-8957,11.766,0,0,7,131,32481,13979,1,0,0,1,0,0,0,0
17.7.2015,30:55.5,34,-0.459,-0.409,175.654,-0.476,-0.35,175.732,2,27,-23,-0.008,0.006,-0.969,0.001,0,-0.002,0.969,0.401,0.006,0.367,0.01,39.6805802,-75.7523068,4.193,-0.01,0,0.62,-8957,11.765,0,0,7,133,32481,13979,1,0,0,1,0,0,0,0
17.7.2015,30:55.6,34,-0.49,-0.387,175.654,-0.631,-0.327,174.492,8,-9,6,-0.011,0.006,-0.965,-0.002,0.001,0.003,0.965,0.397,0.004,0.368,0.038,39.6805802,-75.7523068,4.193,-0.01,0,0.62,-8957,11.764,0,0,7,133,32481,13979,1,0,0,1,0,0,0,0
17.7.2015,30:55.7,34,-0.493,-0.4,175.648,-0.55,-0.499,175.342,14,33,-8,-0.01,0.009,-0.973,-0.001,0.002,-0.005,0.973,0.395,0.002,0.447,0.796,39.6805802,-75.7523068,4.193,-0.01,0,0.62,-8957,11.764,0,0,7,77,32481,13979,1,0,0,1,0,0,0,0
17.7.2015,30:55.7,34,-0.524,-0.433,175.648,-0.567,-0.516,175.622,-24,-1,24,-0.01,0.009,-0.969,0,0,-0.001,0.969,0.402,0.007,0.454,0.866,39.6805802,-75.7523066,4.174,0.02,0.02,0.62,-8957,11.763,0,0,7,133,32481,13979,1,0,0,1,0,0,0,0
17.7.2015,30:55.8,34,-0.53,-0.457,175.637,-0.332,-0.372,174.772,-11,8,4,-0.006,0.006,-0.964,0.004,-0.002,0.003,0.964,0.402,0.006,0.361,-0.946,39.6805802,-75.7523066,4.174,0.02,0.02,0.62,-8957,11.761,0,0,7,135,32481,13979,1,0,0,1,0,0,0,0
17.7.2015,30:55.8,34,-0.515,-0.469,175.633,-0.533,-0.458,175.682,-54,17,32,-0.009,0.008,-0.97,0,-0.001,-0.003,0.97,0.398,0.003,0.363,-0.268,39.6805802,-75.7523066,4.174,0.02,0.02,0.62,-8957,11.764,0,0,7,134,32481,13979,1,0,0,1,0,0,0,0
17.7.2015,30:55.9,34,-0.485,-0.459,175.63,-0.395,-0.499,175.732,-1,-22,19,-0.007,0.009,-0.966,0,0.001,0,0.966,0.394,0.001,0.358,-0.042,39.6805803,-75.7523065,4.149,0.02,0.01,0.62,-8957,11.763,0,0,7,135,32481,13979,1,0,0,1,0,0,0,0
17.7.2015,30:56.1,34,-0.435,-0.502,175.628,-0.613,-0.453,175.732,48,4,-23,-0.011,0.008,-0.967,-0.005,-0.002,0.001,0.967,0.393,0.001,0.523,1.673,39.6805803,-75.7523065,4.149,0.02,0.01,0.62,-8957,11.763,0,0,7,130,32481,13981,1,0,0,1,0,0,0,0
17.7.2015,30:56.2,34,-0.464,-0.477,175.631,-0.47,-0.458,175.732,-24,16,9,-0.008,0.008,-0.965,-0.001,0,0,0.965,0.408,0.009,0.515,1.468,39.6805803,-75.7523064,4.144,0,0.01,0.62,-8957,11.763,0,0,7,135,32481,13981,1,0,0,1,0,0,0,0
17.7.2015,30:56.2,34,-0.464,-0.477,175.631,-0.47,-0.458,175.732,-24,16,9,-0.008,0.008,-0.965,-0.001,0,0,0.965,0.408,0.009,0.515,1.468,39.6805803,-75.7523064,4.144,0,0.01,0.62,-8957,11.765,0,0,7,136,32481,13981,1,0,0,1,0,0,0,0
17.7.2015,30:56.3,34,-0.443,-0.457,175.629,-0.332,-0.688,175.622,34,-7,11,-0.006,0.012,-0.968,0.001,0.004,-0.001,0.968,0.398,0.005,0.363,0.082,39.6805803,-75.7523062,4.125,0,0.03,0.62,-8957,11.761,0,0,7,134,32481,13981,1,0,0,1,0,0,0,0
17.7.2015,30:56.4,34,-0.434,-0.447,175.629,-0.55,-0.361,176.502,-47,37,-16,-0.01,0.006,-0.97,-0.002,-0.001,-0.002,0.97,0.393,0.003,0.363,0.024,39.6805803,-75.7523062,4.125,0,0.03,0.62,-8957,11.764,0,0,7,133,32481,13981,1,0,0,1,0,0,0,0
17.7.2015,30:56.4,34,-0.465,-0.454,175.627,-0.699,-0.413,174.892,-15,3,32,-0.012,0.007,-0.965,-0.004,-0.001,0.002,0.965,0.394,0.004,0.467,1.022,39.6805803,-75.7523062,4.125,0,0.03,0.62,-8957,11.762,0,0,7,118,32481,13982,1,0,0,1,0,0,0,0
17.7.2015,30:56.5,34,-0.484,-0.428,175.625,-0.436,-0.344,174.772,-6,-21,-2,-0.008,0.006,-0.966,0.002,-0.001,0.001,0.966,0.402,0.007,0.468,0.985,39.6805803,-75.7523062,4.125,0,0.03,0.62,-8957,11.764,0,0,7,118,32481,13982,1,0,0,1,0,0,0,0
17.7.2015,30:56.6,34,-0.5,-0.462,175.626,-0.59,-0.499,175.682,39,-32,12,-0.01,0.009,-0.967,0,0,0,0.967,0.4,0.006,0.359,-1.089,39.6805803,-75.752306,4.109,0,0,0.62,-8957,11.764,0,0,7,133,32481,13982,1,0,0,1,0,0,0,0
17.7.2015,30:56.7,34,-0.529,-0.493,175.631,-0.585,-0.625,175.682,-13,-18,99,-0.01,0.011,-0.965,0.001,0.002,0.002,0.965,0.395,0.003,0.36,-0.052,39.6805803,-75.752306,4.109,0,0,0.62,-8957,11.764,0,0,7,132,32481,13982,1,0,0,1,0,0,0,0
17.7.2015,30:56.8,34,-0.525,-0.473,175.631,-0.476,-0.189,174.892,-2,-6,8,-0.008,0.003,-0.969,0.002,-0.004,-0.002,0.969,0.391,0,0.368,0.101,39.6805803,-75.7523058,4.099,0,0.01,0.62,-8957,11.764,0,0,7,133,32481,13982,1,0,0,1,0,0,0,0
17.7.2015,30:56.8,34,-0.494,-0.443,175.628,-0.413,-0.487,175.622,-25,31,-6,-0.007,0.009,-0.966,0.001,0.002,0,0.966,0.388,0,0.383,0.192,39.6805803,-75.7523058,4.099,0,0.01,0.62,-8957,11.764,0,0,7,133,32481,13983,1,0,0,1,0,0,0,0
17.7.2015,30:56.9,34,-0.508,-0.423,175.628,-0.378,-0.109,175.682,29,-49,-25,-0.007,0.002,-0.966,0.003,-0.004,0.001,0.966,0.395,0.003,0.457,0.919,39.6805803,-75.7523058,4.099,0,0.01,0.62,-8957,11.766,0,0,7,135,32481,13983,1,0,0,1,0,0,0,0
17.7.2015,30:56.9,34,-0.475,-0.392,175.624,-0.436,-0.178,175.402,17,30,24,-0.008,0.003,-0.964,-0.001,0,0.003,0.964,0.399,0.005,0.366,-0.936,39.6805804,-75.7523057,4.094,0,0.01,0.62,-8957,11.763,0,0,7,134,32481,13983,1,0,0,1,0,0,0,0
17.7.2015,30:57.0,34,-0.456,-0.396,175.625,-0.355,-0.516,175.402,51,-19,41,-0.006,0.009,-0.969,0.001,0.005,-0.002,0.969,0.395,0.003,0.368,-0.846,39.6805804,-75.7523057,4.094,0,0.01,0.62,-8957,11.767,0,0,7,134,32481,13983,1,0,0,1,0,0,0,0
17.7.2015,30:57.1,34,-0.452,-0.389,175.625,-0.682,-0.372,176.232,-26,-7,-17,-0.012,0.006,-0.968,-0.005,0.001,0,0.968,0.393,0.003,0.37,0.031,39.6805804,-75.7523057,4.094,0,0.01,0.62,-8957,11.763,0,0,7,136,32481,13983,1,0,0,1,0,0,0,0
17.7.2015,30:57.1,34,-0.445,-0.405,175.625,-0.275,-0.499,175.792,-19,14,14,-0.005,0.009,-0.964,0.003,0.001,0.003,0.964,0.39,0,0.367,-0.042,39.6805803,-75.7523055,4.083,0.01,-0.01,0.62,-8957,11.764,0,0,7,131,32481,13983,1,0,0,1,0,0,0,0
17.7.2015,30:57.2,34,-0.445,-0.405,175.625,-0.275,-0.499,175.792,-19,14,14,-0.005,0.009,-0.964,0.003,0.001,0.003,0.964,0.39,0,0.367,-0.042,39.6805803,-75.7523055,4.083,0.01,-0.01,0.62,-8957,11.764,0,0,7,46,32481,13981,1,0,0,1,0,0,0,0
17.7.2015,30:57.3,34,-0.384,-0.443,175.627,-0.12,-0.453,175.732,-61,56,13,-0.002,0.008,-0.961,0.002,0,0.004,0.961,0.398,0.001,0.469,0.999,39.6805803,-75.7523055,4.083,0.01,-0.01,0.62,-8957,11.764,0,0,7,136,32481,13981,1,0,0,1,0,0,0,0
17.7.2015,30:57.3,34,-0.353,-0.456,175.628,0.075,-0.372,175.732,-38,-45,-11,0.001,0.006,-0.968,0.004,-0.002,-0.002,0.968,0.399,0,0.355,-1.184,39.6805804,-75.7523052,4.061,0.01,0.03,0.62,-8957,11.762,0,0,7,132,32481,13981,1,0,0,1,0,0,0,0
17.7.2015,30:57.4,34,-0.322,-0.426,175.629,-0.235,-0.424,175.732,-41,13,-2,-0.004,0.007,-0.964,-0.002,0,0.002,0.964,0.394,-0.001,0.358,-0.533,39.6805804,-75.7523052,4.061,0.01,0.03,0.62,-8957,11.763,0,0,7,132,32481,13981,1,0,0,1,0,0,0,0
17.7.2015,30:57.5,34,-0.29,-0.424,175.626,0.109,-0.372,175.682,-20,2,9,0.002,0.006,-0.967,0.001,-0.001,-0.001,0.967,0.39,-0.003,0.363,0.097,39.6805804,-75.7523051,4.049,0,-0.02,0.62,-8957,11.765,0,0,7,132,32481,13981,1,0,0,1,0,0,0,0
17.7.2015,30:57.6,34,-0.245,-0.444,175.624,0.103,-0.378,174.942,-21,-2,-30,0.002,0.007,-0.965,0,-0.001,0,0.965,0.386,-0.005,0.365,0.045,39.6805804,-75.7523051,4.049,0,-0.02,0.62,-8957,11.764,0,0,7,135,32481,13981,1,0,0,1,0,0,0,0
17.7.2015,30:57.6,34,-0.215,-0.409,175.624,0.201,-0.304,175.792,29,10,3,0.004,0.005,-0.961,0.002,-0.001,0.004,0.961,0.388,-0.004,0.463,0.996,39.6805804,-75.7523051,4.049,0,-0.02,0.62,-8957,11.764,0,0,7,135,32481,13979,1,0,0,1,0,0,0,0
17.7.2015,30:57.7,34,-0.183,-0.38,175.624,0.092,-0.178,174.722,31,-48,-18,0.002,0.003,-0.966,-0.004,-0.001,-0.001,0.966,0.397,0,0.463,0.935,39.6805804,-75.7523051,4.049,0,-0.02,0.62,-8957,11.765,0,0,7,133,32481,13979,1,0,0,1,0,0,0,0
17.7.2015,30:57.7,34,-0.151,-0.352,175.622,0.046,-0.281,175.452,9,17,-9,0.001,0.005,-0.967,-0.004,0.001,0,0.967,0.395,0,0.361,-1.025,39.6805804,-75.7523049,4.036,-0.01,0,0.62,-8957,11.764,0,0,7,133,32481,13979,1,0,0,1,0,0,0,0
17.7.2015,30:57.8,34,-0.124,-0.344,175.62,0.235,-0.332,175.452,-18,15,-71,0.004,0.006,-0.963,-0.001,0.001,0.003,0.963,0.39,-0.003,0.36,-0.095,39.6805804,-75.7523049,4.036,-0.01,0,0.62,-8957,11.764,0,0,7,133,32481,13979,1,0,0,1,0,0,0,0
17.7.2015,30:57.9,34,-0.093,-0.372,175.62,0.138,-0.407,175.572,-35,29,29,0.002,0.007,-0.965,-0.001,0.001,0,0.965,0.387,-0.006,0.355,-0.03,39.6805804,-75.7523047,4.026,-0.01,-0.02,0.63,-8957,11.764,0,0,7,134,32481,13979,1,0,0,1,0,0,0,0
17.7.2015,30:57.9,34,-0.061,-0.36,175.619,0.43,-0.39,175.452,-41,-10,33,0.007,0.007,-0.968,0.004,0.001,-0.002,0.968,0.382,-0.008,0.353,-0.078,39.6805804,-75.7523047,4.026,-0.01,-0.02,0.63,-8957,11.762,0,0,7,134,32481,13979,1,0,0,1,0,0,0,0
17.7.2015,30:58.0,34,-0.034,-0.383,175.613,0.16,-0.332,175.572,-68,11,52,0.003,0.006,-0.967,-0.001,-0.001,-0.001,0.967,0.383,-0.007,0.469,1.187,39.6805804,-75.7523047,4.026,-0.01,-0.02,0.63,-8957,11.763,0,0,7,116,32481,13979,1,0,0,1,0,0,0,0
17.7.2015,30:58.2,34,-0.001,-0.376,175.616,0.057,-0.235,175.572,-15,-16,13,0.001,0.004,-0.962,-0.001,-0.002,0.002,0.962,0.392,-0.003,0.363,-1.087,39.6805805,-75.7523045,4.009,0,0,0.63,-8957,11.764,0,0,7,132,32481,13979,1,0,0,1,0,0,0,0
17.7.2015,30:58.2,34,-0.001,-0.378,175.616,0.029,-0.453,174.602,11,21,-1,0.001,0.008,-0.965,0,0.001,0,0.965,0.389,-0.004,0.364,-0.091,39.6805805,-75.7523045,4.009,0,0,0.63,-8957,11.764,0,0,7,137,32481,13979,1,0,0,1,0,0,0,0
17.7.2015,30:58.4,34,0.039,-0.37,175.58,0.04,-0.269,175.572,-46,-25,-7,0.001,0.005,-0.966,-0.001,-0.001,-0.001,0.966,0.382,-0.007,0.361,-0.019,39.6805805,-75.7523043,3.999,0,0,0.63,-8957,11.764,0,0,7,137,32481,13978,1,0,0,1,0,0,0,0
17.7.2015,30:58.4,34,0.013,-0.341,175.569,-0.069,-0.327,175.452,-29,23,96,-0.001,0.006,-0.967,-0.001,0.001,-0.002,0.967,0.389,-0.002,0.461,0.909,39.6805805,-75.7523043,3.999,0,0,0.63,-8957,11.764,0,0,7,136,32481,13978,1,0,0,1,0,0,0,0
17.7.2015,30:58.5,34,0.001,-0.341,175.571,-0.04,-0.424,175.572,5,44,-26,-0.001,0.007,-0.966,0,0.002,-0.001,0.966,0.394,0,0.362,-0.989,39.6805805,-75.7523043,3.999,0,0,0.63,-8957,11.761,0,0,7,134,32481,13978,1,0,0,1,0,0,0,0
17.7.2015,30:58.6,34,-0.029,-0.331,175.568,-0.034,-0.315,175.572,21,-15,25,-0.001,0.005,-0.967,0.001,0,0,0.967,0.391,0,0.368,-0.974,39.6805806,-75.7523041,3.977,0,0,0.63,-8957,11.764,0,0,7,131,32481,13978,1,0,0,1,0,0,0,0
17.7.2015,30:58.6,34,-0.053,-0.354,175.568,-0.132,-0.413,175.572,-16,42,13,-0.002,0.007,-0.965,-0.001,0.001,0.001,0.965,0.388,-0.002,0.361,-0.042,39.6805806,-75.7523041,3.977,0,0,0.63,-8957,11.764,0,0,7,131,32481,13978,1,0,0,1,0,0,0,0
17.7.2015,30:58.7,34,-0.039,-0.372,175.568,-0.023,-0.281,175.452,13,19,56,0,0.005,-0.964,0,-0.002,0.003,0.964,0.383,-0.004,0.359,-0.017,39.6805806,-75.7523039,3.963,-0.01,0,0.63,-8957,11.764,0,0,7,137,32481,13978,1,0,0,1,0,0,0,0
17.7.2015,30:58.8,34,-0.008,-0.366,175.55,0.183,-0.499,175.452,-7,-42,-6,0.003,0.009,-0.961,0.003,0.002,0.004,0.961,0.381,-0.006,0.436,0.844,39.6805806,-75.7523039,3.963,-0.01,0,0.63,-8957,11.765,0,0,7,-1,32481,13978,1,0,0,1,0,0,0,0
17.7.2015,30:58.9,34,-0.026,-0.39,175.549,-0.235,-0.407,175.572,-2,-43,-40,-0.004,0.007,-0.969,-0.004,0,-0.004,0.969,0.389,-0.001,0.45,0.875,39.6805806,-75.7523039,3.963,-0.01,0,0.63,-8957,11.764,0,0,7,132,32481,13978,1,0,0,1,0,0,0,0
17.7.2015,30:58.9,34,-0.06,-0.389,175.545,-0.069,-0.407,175.572,13,-6,8,-0.001,0.007,-0.965,0,0.001,0.001,0.965,0.391,0,0.36,-0.966,39.6805806,-75.7523039,3.963,-0.01,0,0.63,-8957,11.764,0,0,7,135,32481,13978,1,0,0,1,0,0,0,0
17.7.2015,30:59.0,34,-0.06,-0.389,175.545,-0.069,-0.407,175.572,13,-6,8,-0.001,0.007,-0.965,0,0.001,0.001,0.965,0.391,0,0.36,-0.966,39.6805806,-75.7523037,3.952,0.01,-0.01,0.63,-8957,11.763,0,0,7,135,32481,13978,1,0,0,1,0,0,0,0
17.7.2015,30:59.1,34,-0.097,-0.39,175.543,-0.298,-0.407,175.452,-19,-22,-1,-0.005,0.007,-0.97,-0.002,0.002,-0.004,0.97,0.383,-0.002,0.362,-0.022,39.6805806,-75.7523037,3.952,0.01,-0.01,0.63,-8957,11.765,0,0,7,135,32481,13978,1,0,0,1,0,0,0,0
17.7.2015,30:59.1,34,-0.127,-0.395,175.546,-0.378,-0.424,174.602,-53,1,11,-0.007,0.007,-0.968,-0.002,0.001,-0.001,0.968,0.381,-0.002,0.37,0.097,39.6805807,-75.7523034,3.937,0,0,0.63,-8957,11.761,0,0,7,131,32481,13978,1,0,0,1,0,0,0,0
17.7.2015,30:59.2,34,-0.148,-0.433,175.53,-0.378,-0.613,175.842,-44,-16,27,-0.007,0.011,-0.97,-0.001,0.002,-0.003,0.97,0.386,0,0.471,1.032,39.6805807,-75.7523034,3.937,0,0,0.63,-8957,11.763,0,0,7,133,32481,13978,1,0,0,1,0,0,0,0
17.7.2015,30:59.3,34,-0.145,-0.431,175.53,-0.218,-0.304,175.732,8,-12,-21,-0.004,0.005,-0.966,0.001,-0.003,0.001,0.966,0.395,0.005,0.387,-0.57,39.6805807,-75.7523034,3.937,0,0,0.63,-8957,11.761,0,0,7,131,32481,13978,1,0,0,1,0,0,0,0
17.7.2015,30:59.4,34,-0.163,-0.401,175.528,-0.103,-0.344,175.002,32,26,-37,-0.002,0.006,-0.965,0.002,-0.001,0,0.965,0.392,0.003,0.359,-1.111,39.6805807,-75.7523032,3.924,-0.01,0,0.63,-8957,11.764,0,0,7,138,32481,13978,1,0,0,1,0,0,0,0
17.7.2015,30:59.4,34,-0.133,-0.407,175.525,0.012,-0.504,175.842,6,18,57,0,0.009,-0.966,0.003,0,0,0.966,0.388,0,0.358,-0.048,39.6805807,-75.7523032,3.924,-0.01,0,0.63,-8957,11.764,0,0,7,131,32481,13978,1,0,0,1,0,0,0,0
17.7.2015,30:59.5,34,-0.109,-0.416,175.525,-0.051,-0.178,175.732,-24,1,-55,-0.001,0.003,-0.965,0.001,-0.005,0,0.965,0.385,0,0.359,-0.01,39.6805807,-75.7523032,3.924,-0.01,0,0.63,-8957,11.764,0,0,7,131,32481,13978,1,0,0,1,0,0,0,0
17.7.2015,30:59.5,34,-0.077,-0.408,175.531,-0.034,-0.39,175.842,-16,41,1,-0.001,0.007,-0.967,-0.001,-0.001,0,0.967,0.382,-0.001,0.36,0.023,39.6805807,-75.752303,3.914,0,0,0.63,-8957,11.764,0,0,7,137,32481,13978,1,0,0,1,0,0,0,0
17.7.2015,30:59.6,34,-0.102,-0.42,175.531,-0.132,-0.562,175.732,-12,36,-9,-0.002,0.01,-0.964,0,0.002,0.002,0.964,0.391,0.002,0.502,1.431,39.6805807,-75.752303,3.914,0,0,0.63,-8957,11.763,0,0,7,131,32481,13979,1,0,0,1,0,0,0,0
17.7.2015,30:59.7,34,-0.118,-0.428,175.53,-0.281,-0.235,175.842,-41,13,5,-0.005,0.004,-0.963,-0.002,-0.003,0.002,0.963,0.4,0.006,0.363,-1.367,39.6805807,-75.752303,3.914,0,0,0.63,-8957,11.764,0,0,7,132,32481,13979,1,0,0,1,0,0,0,0
17.7.2015,30:59.7,34,-0.115,-0.404,175.53,0.109,-0.327,175.732,8,7,6,0.002,0.006,-0.968,0.004,-0.001,-0.003,0.968,0.396,0.004,0.369,-1.306,39.6805807,-75.7523027,3.908,0,0,0.63,-8957,11.764,0,0,7,132,32481,13979,1,0,0,1,0,0,0,0
17.7.2015,30:59.8,34,-0.085,-0.429,175.532,0.063,-0.413,174.942,34,-24,-24,0.001,0.007,-0.968,0.001,0,-0.003,0.968,0.393,0.003,0.363,-0.035,39.6805807,-75.7523027,3.908,0,0,0.63,-8957,11.766,0,0,7,134,32481,13979,1,0,0,1,0,0,0,0
17.7.2015,30:59.9,34,-0.074,-0.398,175.53,-0.017,-0.39,176.342,-23,-22,-6,0,0.007,-0.968,0.001,0.002,-0.001,0.968,0.391,0.003,0.373,0.03,39.6805807,-75.7523027,3.908,0,0,0.63,-8957,11.765,0,0,7,132,32481,13979,1,0,0,1,0,0,0,0
17.7.2015,30:59.9,34,-0.04,-0.42,175.529,0.143,-0.499,175.842,-11,-42,-40,0.003,0.009,-0.968,0.002,0.001,-0.002,0.968,0.389,0.003,0.373,0.056,39.6805807,-75.7523025,3.896,0.01,0.01,0.63,-8957,11.765,0,0,7,131,32481,13979,1,0,0,1,0,0,0,0
17.7.2015,31:00.0,34,-0.031,-0.438,175.529,0.012,-0.481,175.952,-8,10,-18,0,0.008,-0.962,0,0,0.003,0.962,0.401,0.008,0.519,1.42,39.6805807,-75.7523025,3.896,0.01,0.01,0.63,-8957,11.767,0,0,7,133,32481,13980,1,0,0,1,0,0,0,0
17.7.2015,31:00.1,34,-0.001,-0.48,175.533,-0.023,-0.481,175.842,-4,18,39,0,0.008,-0.964,-0.001,-0.001,0.001,0.964,0.409,0.01,0.353,-1.706,39.6805807,-75.7523025,3.896,0.01,0.01,0.63,-8957,11.764,0,0,7,133,32481,13980,1,0,0,1,0,0,0,0
17.7.2015,31:00.1,34,-0.007,-0.468,175.546,0.12,-0.304,175.842,12,19,-1,0.002,0.005,-0.965,0.001,-0.003,-0.001,0.965,0.403,0.007,0.356,-0.87,39.6805807,-75.7523022,3.888,0.02,0.01,0.63,-8957,11.762,0,0,7,133,32481,13980,1,0,0,1,0,0,0,0
17.7.2015,31:00.2,34,0.023,-0.459,175.548,0.458,-0.47,175.002,-6,-3,-1,0.008,0.008,-0.966,0.006,0,-0.001,0.966,0.399,0.005,0.36,0.002,39.6805807,-75.7523022,3.888,0.02,0.01,0.63,-8957,11.764,0,0,7,135,32481,13980,1,0,0,1,0,0,0,0
17.7.2015,31:00.3,34,0.035,-0.431,175.547,-0.097,-0.327,175.002,40,-16,-12,-0.002,0.006,-0.962,-0.003,-0.001,0.003,0.962,0.395,0.002,0.37,0.099,39.6805807,-75.752302,3.885,0,0.02,0.63,-8957,11.762,0,0,7,133,32481,13980,1,0,0,1,0,0,0,0
17.7.2015,31:00.3,34,0.036,-0.402,175.548,-0.132,-0.413,175.842,57,53,3,-0.002,0.007,-0.966,-0.003,0,-0.001,0.966,0.392,0.001,0.406,0.47,39.6805807,-75.752302,3.885,0,0.02,0.63,-8957,11.764,0,0,7,133,32481,13979,1,0,0,1,0,0,0,0
17.7.2015,31:00.4,34,0.037,-0.414,175.549,0.172,-0.269,175.842,-22,21,-32,0.003,0.005,-0.965,0.002,-0.003,0,0.965,0.399,0.004,0.468,1.063,39.6805807,-75.752302,3.885,0,0.02,0.63,-8957,11.764,0,0,7,131,32481,13979,1,0,0,1,0,0,0,0
17.7.2015,31:00.5,34,0.066,-0.407,175.547,0.092,-0.413,175.732,23,-37,-1,0.002,0.007,-0.967,0,0,-0.001,0.967,0.403,0.007,0.367,-0.878,39.6805807,-75.752302,3.885,0,0.02,0.63,-8957,11.761,0,0,7,137,32481,13979,1,0,0,1,0,0,0,0
17.7.2015,31:00.5,34,0.04,-0.429,175.547,0.057,-0.378,175.002,-19,-13,-15,0.001,0.007,-0.966,0.001,-0.001,0,0.966,0.398,0.005,0.364,-1.026,39.6805807,-75.752302,3.885,0,0.02,0.63,-8957,11.762,0,0,7,130,32481,13979,1,0,0,1,0,0,0,0
17.7.2015,31:00.6,34,0.019,-0.414,175.544,-0.023,-0.304,174.942,3,-15,-3,0,0.005,-0.965,0,-0.002,0.001,0.965,0.395,0.004,0.369,0.059,39.6805807,-75.7523018,3.873,0.01,0.01,0.63,-8957,11.765,0,0,7,136,32481,13979,1,0,0,1,0,0,0,0
17.7.2015,31:00.8,34,0.019,-0.414,175.544,-0.023,-0.304,174.942,3,-15,-3,0,0.005,-0.965,0,-0.002,0.001,0.965,0.395,0.004,0.369,0.059,39.6805807,-75.7523015,3.873,0.01,0.01,0.64,-8957,11.764,0,0,7,74,32481,13979,1,0,0,1,0,0,0,0
17.7.2015,31:00.8,34,-0.069,-0.344,175.533,-0.2,-0.361,175.572,30,30,44,-0.004,0.006,-0.967,0,0.001,0,0.967,0.398,0.007,0.46,0.903,39.6805807,-75.7523015,3.873,0.01,0.01,0.64,-8957,11.764,0,0,7,135,32481,13979,1,0,0,1,0,0,0,0
17.7.2015,31:00.9,34,-0.111,-0.4,175.531,-0.235,-0.453,175.512,11,-12,-7,-0.004,0.008,-0.966,-0.001,0.001,0,0.966,0.396,0.004,0.356,-0.409,39.6805807,-75.7523012,3.873,0.01,0.01,0.64,-8957,11.764,0,0,7,135,32481,13979,1,0,0,1,0,0,0,0
17.7.2015,31:01.0,34,-0.138,-0.43,175.531,-0.315,-0.436,175.842,1,-50,13,-0.005,0.008,-0.968,-0.002,-0.001,-0.001,0.968,0.392,0.002,0.357,-0.05,39.6805807,-75.7523012,3.873,0.01,0.01,0.64,-8957,11.763,0,0,7,134,32481,13979,1,0,0,1,0,0,0,0
17.7.2015,31:01.1,34,-0.158,-0.421,175.531,0.012,-0.504,176.612,29,-7,-55,0,0.009,-0.96,0.005,0.001,0.005,0.96,0.388,-0.001,0.363,0.07,39.6805807,-75.7523012,3.873,0.01,0.01,0.64,-8957,11.764,0,0,7,135,32481,13979,1,0,0,1,0,0,0,0
17.7.2015,31:01.1,34,-0.127,-0.413,175.531,-0.069,-0.258,175.952,0,-10,23,-0.001,0.004,-0.965,0.002,-0.002,0,0.965,0.386,-0.001,0.43,0.733,39.6805807,-75.7523012,3.873,0.01,0.01,0.64,-8957,11.766,0,0,7,13,32481,13978,1,0,0,1,0,0,0,0
17.7.2015,31:01.2,34,-0.127,-0.413,175.531,-0.069,-0.258,175.952,0,-10,23,-0.001,0.004,-0.965,0.002,-0.002,0,0.965,0.386,-0.001,0.43,0.733,39.6805807,-75.752301,3.875,-0.01,0.01,0.64,-8957,11.762,0,0,7,134,32481,13978,1,0,0,1,0,0,0,0
17.7.2015,31:01.3,34,-0.149,-0.373,175.539,-0.264,-0.424,174.722,-2,51,33,-0.005,0.007,-0.968,-0.001,0.002,0.001,0.968,0.393,0.003,0.362,-0.83,39.6805807,-75.752301,3.875,-0.01,0.01,0.64,-8957,11.764,0,0,7,132,32481,13978,1,0,0,1,0,0,0,0
17.7.2015,31:01.4,34,-0.179,-0.405,175.539,-0.292,-0.504,175.732,17,35,35,-0.005,0.009,-0.969,0,0,-0.001,0.969,0.39,0.001,0.366,-0.074,39.6805807,-75.752301,3.875,-0.01,0.01,0.64,-8957,11.764,0,0,7,134,32481,13978,1,0,0,1,0,0,0,0
17.7.2015,31:01.4,34,-0.21,-0.39,175.539,-0.355,-0.545,174.662,-57,24,-10,-0.006,0.009,-0.967,0.001,0.003,0.001,0.967,0.388,0.001,0.369,0.07,39.6805806,-75.7523008,3.877,0.02,0.01,0.64,-8957,11.765,0,0,7,134,32481,13978,1,0,0,1,0,0,0,0
17.7.2015,31:01.5,34,-0.22,-0.425,175.538,-0.292,-0.458,175.792,-29,-20,-26,-0.005,0.008,-0.969,0.001,-0.001,0,0.969,0.386,0.001,0.37,0.001,39.6805806,-75.7523008,3.877,0.02,0.01,0.64,-8957,11.764,0,0,7,133,32481,13978,1,0,0,1,0,0,0,0
17.7.2015,31:01.5,34,-0.246,-0.449,175.538,-0.298,-0.545,175.682,27,9,-9,-0.005,0.009,-0.964,0.001,0,0.003,0.964,0.387,0,0.457,0.849,39.6805806,-75.7523005,3.871,0,0,0.64,-8957,11.761,0,0,7,117,32481,13978,1,0,0,1,0,0,0,0
