Date, Time, System Timestamp,Angle Pitch, Angle Roll, Angle Yaw, Pitch Reference, Roll Reference, Yaw Reference, Ang.vel. Pitch, Ang.vel. Roll, Ang.vel. Yaw, Total acc. X, Total acc. Y, Total acc. Z, Trans. acc. X, Trans. acc. Y, Trans. acc. Z, Total acc., Height, dHeight, Height reference, dHeight reference,Latitude, Longitude, Height, Speed x, Speed y, Horizontal accuracy, GPS Status,Battery 1, Battery 2, Status, FlightMode,Pressure, Temp. Gyro, Temp. ADC,Pitch, Roll, Yaw, Thrust,debug1,debug2,debug3,debug4
17.7.2015,33:10.9,91,-3.138,0.266,171.359,-2.998,0.367,171.492,26,17,3,-0.052,-0.006,-0.979,0.002,-0.002,-0.004,0.98,0.924,0.014,0.889,-1.039,39.6805712,-75.7523239,4.591,0.01,0.03,0.9,-8957,11.672,0,0,7,160,32757,14098,-4,0,0,1,0,0,0,0
17.7.2015,33:11.0,91,-3.137,0.262,171.361,-3.153,-0.04,170.752,44,-11,-26,-0.055,0.001,-0.974,0,0.005,0.001,0.976,0.922,0.013,0.897,-0.471,39.6805712,-75.7523239,4.591,0.01,0.03,0.9,-8957,11.667,0,0,7,159,32757,14098,-4,0,0,1,0,0,0,0
17.7.2015,33:11.0,91,-3.141,0.316,171.352,-3.296,0.229,170.522,-8,-44,33,-0.058,-0.004,-0.976,-0.003,0.003,-0.001,0.977,0.929,0.014,0.9,-1.009,39.6805711,-75.752324,4.581,0.01,0.03,0.9,-8957,11.666,0,0,7,160,32757,14101,-4,0,0,1,0,0,0,0
17.7.2015,33:11.1,91,-3.141,0.316,171.352,-3.296,0.229,170.522,-8,-44,33,-0.058,-0.004,-0.976,-0.003,0.003,-0.001,0.977,0.929,0.014,0.9,-1.009,39.6805711,-75.7523239,4.58,0.03,0.04,0.9,-8957,11.666,0,0,7,157,32759,14101,-4,0,0,1,0,0,0,0
17.7.2015,33:11.3,91,-3.103,0.271,171.352,-3.176,0.304,170.752,-12,-62,-41,-0.055,-0.005,-0.977,-0.002,-0.002,-0.001,0.979,0.923,0.012,0.897,-0.032,39.6805711,-75.7523239,4.58,0.03,0.04,0.9,-8957,11.665,0,0,7,157,32759,14101,-4,0,0,1,0,0,0,0
17.7.2015,33:11.4,91,-3.089,0.251,171.353,-3.182,0.223,171.432,26,23,8,-0.056,-0.004,-0.975,-0.003,0,0.002,0.976,0.938,0.018,0.906,-1.198,39.6805711,-75.7523239,4.58,0.03,0.04,0.9,-8957,11.665,0,0,7,159,32760,14099,-4,0,0,1,0,0,0,0
17.7.2015,33:11.5,91,-3.089,0.251,171.353,-3.182,0.223,171.432,26,23,8,-0.056,-0.004,-0.975,-0.003,0,0.002,0.976,0.938,0.018,0.906,-1.198,39.6805711,-75.7523239,4.58,0.03,0.04,0.9,-8957,11.667,0,0,7,156,32760,14099,-4,0,0,1,0,0,0,0
17.7.2015,33:11.6,91,-3.089,0.251,171.353,-3.182,0.223,171.432,26,23,8,-0.056,-0.004,-0.975,-0.003,0,0.002,0.976,0.938,0.018,0.906,-1.198,39.680571,-75.752324,4.584,-0.01,0.03,0.9,-8957,11.669,0,0,7,158,32762,14099,-4,0,0,1,0,0,0,0
17.7.2015,33:11.7,91,-3.086,0.233,171.357,-3.049,-0.006,171.542,15,28,-14,-0.053,0,-0.974,0,0.004,0.001,0.976,0.936,0.012,1.021,1.063,39.680571,-75.752324,4.584,-0.01,0.03,0.9,-8957,11.666,0,0,7,155,32763,14101,-4,0,0,1,0,0,0,0
17.7.2015,33:11.7,91,-3.086,0.233,171.357,-3.049,-0.006,171.542,15,28,-14,-0.053,0,-0.974,0,0.004,0.001,0.976,0.936,0.012,1.021,1.063,39.6805709,-75.7523239,4.591,0.05,0.03,0.9,-8957,11.665,0,0,7,156,32763,14101,-4,0,0,1,0,0,0,0
17.7.2015,33:11.8,91,-3.105,0.226,171.357,-3.227,0.149,171.542,22,-15,25,-0.056,-0.003,-0.972,-0.001,0.001,0.003,0.974,0.946,0.015,0.903,-1.201,39.6805709,-75.7523239,4.591,0.05,0.03,0.9,-8957,11.664,0,0,7,160,32763,14101,-4,0,0,1,0,0,0,0
17.7.2015,33:12.3,91,-3.13,0.181,171.377,-3.273,0.241,171.772,27,-20,-12,-0.057,-0.004,-0.977,-0.003,-0.003,0,0.978,0.945,0.014,0.913,-0.11,39.6805707,-75.752324,4.604,0.01,0.05,0.9,-8957,11.674,0,0,7,156,32764,14102,-4,0,0,1,0,0,0,0
17.7.2015,33:12.5,91,-3.166,0.239,171.375,-3.095,0.183,170.752,-38,-3,5,-0.054,-0.003,-0.976,0.001,0.002,-0.001,0.977,0.947,0.012,1.029,1.154,39.6805707,-75.752324,4.604,0.01,0.05,0.9,-8957,11.668,0,0,7,156,32766,14102,-4,0,0,1,0,0,0,0
17.7.2015,33:12.6,91,-3.16,0.232,171.382,-2.923,0.075,170.752,-31,47,44,-0.051,-0.001,-0.973,0.004,0.003,0.002,0.974,0.953,0.014,0.919,-1.093,39.6805706,-75.752324,4.604,0.03,0.06,0.9,-8957,11.67,0,0,7,156,32766,14100,-4,0,0,1,0,0,0,0
17.7.2015,33:12.6,91,-3.16,0.232,171.382,-2.923,0.075,170.752,-31,47,44,-0.051,-0.001,-0.973,0.004,0.003,0.002,0.974,0.953,0.014,0.919,-1.093,39.6805706,-75.752324,4.604,0.03,0.06,0.9,-8957,11.67,0,0,7,156,32766,14100,-4,0,0,1,0,0,0,0
17.7.2015,33:12.8,91,-3.072,0.196,171.379,-2.952,0.401,171.772,-59,-33,-34,-0.051,-0.007,-0.977,0,-0.004,-0.003,0.978,0.945,0.009,0.921,0.01,39.6805705,-75.7523241,4.605,0.01,0.04,0.9,-8957,11.668,0,0,7,156,32766,14100,-4,0,0,1,0,0,0,0
17.7.2015,33:13.0,91,-3.082,0.191,171.39,-3.072,0.149,171.772,-27,-9,34,-0.054,-0.003,-0.975,0,0.001,0,0.977,0.968,0.022,0.936,-1.643,39.6805704,-75.7523241,4.614,0.04,0.02,0.9,-8957,11.667,0,0,7,157,32767,14100,-4,0,0,1,0,0,0,0
17.7.2015,33:13.1,91,-3.046,0.195,171.393,-2.78,0.355,171.772,5,-1,8,-0.049,-0.006,-0.973,0.004,-0.003,0.003,0.974,0.966,0.02,0.936,0.027,39.6805704,-75.7523241,4.614,0.04,0.02,0.9,-8957,11.665,0,0,7,158,32769,14100,-4,0,0,1,0,0,0,0
17.7.2015,33:13.1,91,-3.046,0.195,171.393,-2.78,0.355,171.772,5,-1,8,-0.049,-0.006,-0.973,0.004,-0.003,0.003,0.974,0.966,0.02,0.936,0.027,39.6805704,-75.7523241,4.614,0.04,0.02,0.9,-8957,11.665,0,0,7,158,32769,14100,-4,0,0,1,0,0,0,0
17.7.2015,33:13.4,91,-2.989,0.239,171.403,-3.216,0.395,171.492,27,31,2,-0.056,-0.007,-0.975,-0.005,-0.002,0.001,0.976,0.971,0.018,0.944,-0.156,39.6805704,-75.7523241,4.614,0.04,0.02,0.9,-8957,11.668,0,0,7,154,32771,14103,-4,0,0,1,0,0,0,0
17.7.2015,33:13.6,91,-3.011,0.269,171.405,-2.906,0.332,171.492,-13,-16,-27,-0.051,-0.006,-0.975,0.003,0,0,0.976,0.969,0.016,0.944,0.061,39.6805704,-75.7523241,4.614,0.04,0.02,0.9,-8957,11.665,0,0,7,154,32771,14103,-4,0,0,1,0,0,0,0
17.7.2015,33:13.7,91,-2.977,0.267,171.402,-2.854,0.155,170.752,6,-23,18,-0.05,-0.003,-0.973,0.001,0.002,0.003,0.974,0.978,0.02,1.08,1.384,39.6805702,-75.7523241,4.627,0.02,0,0.9,-8957,11.665,0,0,7,156,32772,14103,-4,0,0,1,0,0,0,0
17.7.2015,33:13.8,91,-2.905,0.2,171.399,-2.791,-0.023,170.752,43,34,-22,-0.049,0,-0.973,0,0.003,0.003,0.974,0.981,0.02,0.941,-1.339,39.6805701,-75.7523241,4.629,-0.01,0,0.9,-8957,11.667,0,0,7,158,32772,14103,-4,0,0,1,0,0,0,0
17.7.2015,33:13.9,91,-2.907,0.201,171.4,-2.906,0.43,171.602,-49,35,39,-0.051,-0.007,-0.971,-0.001,-0.003,0.003,0.972,0.976,0.014,0.942,0.022,39.6805701,-75.7523241,4.629,-0.01,0,0.9,-8957,11.665,0,0,7,156,32772,14103,-4,0,0,1,0,0,0,0
17.7.2015,33:13.9,91,-2.873,0.234,171.4,-2.958,0.384,171.542,-21,-52,31,-0.052,-0.007,-0.976,-0.003,-0.001,-0.002,0.977,0.973,0.011,0.94,-0.048,39.6805701,-75.7523241,4.635,0.02,0,0.9,-8957,11.668,0,0,7,160,32772,14103,-4,0,0,1,0,0,0,0
17.7.2015,33:14.0,91,-2.9,0.259,171.401,-3.101,0.264,171.492,20,-4,59,-0.054,-0.005,-0.97,-0.003,0.001,0.003,0.971,0.974,0.011,1.063,1.201,39.6805701,-75.7523241,4.635,0.02,0,0.9,-8957,11.665,0,0,7,140,32772,14104,-4,0,0,1,0,0,0,0
17.7.2015,33:14.1,91,-2.9,0.259,171.401,-3.101,0.264,171.492,20,-4,59,-0.054,-0.005,-0.97,-0.003,0.001,0.003,0.971,0.974,0.011,1.063,1.201,39.6805701,-75.7523241,4.635,0.02,0,0.9,-8957,11.669,0,0,7,154,32773,14104,-4,0,0,1,0,0,0,0
17.7.2015,33:14.1,91,-2.9,0.259,171.401,-3.101,0.264,171.492,20,-4,59,-0.054,-0.005,-0.97,-0.003,0.001,0.003,0.971,0.974,0.011,1.063,1.201,39.68057,-75.7523242,4.64,0.02,-0.01,0.9,-8957,11.667,0,0,7,156,32773,14104,-4,0,0,1,0,0,0,0
17.7.2015,33:14.2,91,-2.931,0.28,171.399,-2.86,0.241,170.812,-76,-31,-27,-0.05,-0.004,-0.973,0.001,0.001,0.001,0.974,0.982,0.015,0.949,-0.049,39.68057,-75.7523242,4.64,0.02,-0.01,0.9,-8957,11.667,0,0,7,158,32774,14104,-4,0,0,1,0,0,0,0
17.7.2015,33:14.3,91,-2.931,0.28,171.399,-2.86,0.241,170.812,-76,-31,-27,-0.05,-0.004,-0.973,0.001,0.001,0.001,0.974,0.982,0.015,0.949,-0.049,39.68057,-75.7523242,4.64,0.02,-0.01,0.9,-8957,11.668,0,0,7,159,32774,14104,-4,0,0,1,0,0,0,0
17.7.2015,33:14.4,91,-2.931,0.28,171.399,-2.86,0.241,170.812,-76,-31,-27,-0.05,-0.004,-0.973,0.001,0.001,0.001,0.974,0.982,0.015,0.949,-0.049,39.68057,-75.7523242,4.64,0.02,-0.01,0.9,-8957,11.664,0,0,7,159,32774,14104,-4,0,0,1,0,0,0,0
17.7.2015,33:14.5,91,-3.019,0.305,171.401,-3.113,0.229,172.002,8,43,6,-0.054,-0.004,-0.976,0,0.003,0,0.977,0.984,0.017,1.038,0.898,39.68057,-75.7523242,4.64,0.02,-0.01,0.9,-8957,11.665,0,0,7,158,32775,14105,-4,0,0,1,0,0,0,0
17.7.2015,33:14.6,91,-2.988,0.304,171.395,-2.7,0.304,171.262,2,-16,21,-0.047,-0.005,-0.977,0.003,0.002,-0.001,0.978,0.979,0.012,0.947,0.004,39.6805697,-75.7523244,4.654,-0.01,-0.01,0.89,-8957,11.666,0,0,7,156,32776,14105,-4,0,0,1,0,0,0,0
17.7.2015,33:14.7,91,-2.994,0.293,171.391,-3.113,0.447,171.542,1,-4,-24,-0.054,-0.008,-0.974,-0.002,-0.003,0,0.976,0.973,0.007,0.941,-0.065,39.6805696,-75.7523245,4.672,0.02,0.01,0.89,-8957,11.668,0,0,7,158,32776,14105,-4,0,0,1,0,0,0,0
17.7.2015,33:14.8,91,-3.013,0.307,171.391,-2.889,0.395,171.262,-12,-29,33,-0.05,-0.007,-0.975,0.003,0,0,0.976,0.98,0.011,1.044,0.977,39.6805696,-75.7523245,4.672,0.02,0.01,0.89,-8957,11.664,0,0,7,158,32776,14105,-4,0,0,1,0,0,0,0
17.7.2015,33:14.9,91,-3.034,0.291,171.391,-3.113,0.304,171.542,30,0,-43,-0.054,-0.005,-0.976,0,-0.001,-0.001,0.978,0.984,0.013,0.944,-1.029,39.6805696,-75.7523245,4.672,0.02,0.01,0.89,-8957,11.667,0,0,7,159,32777,14105,-4,0,0,1,0,0,0,0
17.7.2015,33:15.0,91,-3.034,0.291,171.391,-3.113,0.304,171.542,30,0,-43,-0.054,-0.005,-0.976,0,-0.001,-0.001,0.978,0.984,0.013,0.944,-1.029,39.6805695,-75.7523245,4.69,0.02,0.01,0.89,-8957,11.665,0,0,7,157,32777,14105,-4,0,0,1,0,0,0,0
17.7.2015,33:15.1,91,-3.052,0.313,171.393,-3.113,0.309,171.322,-54,-49,3,-0.054,-0.005,-0.975,-0.001,0.001,0.001,0.976,0.977,0.009,0.958,0.107,39.6805695,-75.7523245,4.69,0.02,0.01,0.89,-8957,11.664,0,0,7,154,32778,14105,-4,0,0,1,0,0,0,0
17.7.2015,33:15.2,91,-3.052,0.313,171.393,-3.113,0.309,171.322,-54,-49,3,-0.054,-0.005,-0.975,-0.001,0.001,0.001,0.976,0.977,0.009,0.958,0.107,39.6805695,-75.7523245,4.69,0.02,0.01,0.89,-8957,11.669,0,0,7,156,32778,14105,-4,0,0,1,0,0,0,0
17.7.2015,33:15.3,91,-3.051,0.294,171.395,-3.055,0.012,172.282,-4,42,11,-0.053,0,-0.972,0,0.004,0.003,0.974,0.992,0.015,0.967,-1.041,39.6805694,-75.7523247,4.706,0.01,0.02,0.89,-8957,11.664,0,0,7,156,32778,14105,-4,0,0,1,0,0,0,0
17.7.2015,33:15.4,91,-3.053,0.264,171.395,-3.038,0.223,171.542,-47,16,-43,-0.053,-0.004,-0.969,0,-0.001,0.004,0.971,0.99,0.011,0.963,-1.119,39.6805694,-75.7523247,4.706,0.01,0.02,0.89,-8957,11.665,0,0,7,156,32779,14105,-4,0,0,1,0,0,0,0
17.7.2015,33:15.4,91,-3.055,0.28,171.395,-3.067,0.304,171.542,-45,19,-3,-0.053,-0.005,-0.975,0,-0.001,-0.001,0.976,0.987,0.009,0.957,-0.094,39.6805694,-75.7523247,4.721,0.01,0.03,0.89,-8957,11.668,0,0,7,158,32779,14105,-4,0,0,1,0,0,0,0
17.7.2015,33:15.5,91,-3.038,0.253,171.395,-3.038,0.241,172.282,34,22,-3,-0.053,-0.004,-0.977,0,0,-0.004,0.979,0.985,0.007,0.963,0.017,39.6805694,-75.7523247,4.721,0.01,0.03,0.89,-8957,11.667,0,0,7,158,32781,14105,-4,0,0,1,0,0,0,0
17.7.2015,33:15.6,91,-3.063,0.241,171.391,-3.084,0.092,171.542,-18,12,-15,-0.054,-0.002,-0.973,0,0.002,0,0.975,0.985,0.007,1.069,1.072,39.6805694,-75.7523247,4.721,0.01,0.03,0.89,-8957,11.669,0,0,7,139,32781,14106,-4,0,0,1,0,0,0,0
17.7.2015,33:15.6,91,-3.063,0.241,171.391,-3.084,0.092,171.542,-18,12,-15,-0.054,-0.002,-0.973,0,0.002,0,0.975,0.985,0.007,1.069,1.072,39.6805693,-75.7523248,4.74,0.02,0.03,0.89,-8957,11.666,0,0,7,139,32781,14106,-4,0,0,1,0,0,0,0
17.7.2015,33:15.7,91,-3.004,0.214,171.391,-2.986,0.395,170.812,8,5,-27,-0.052,-0.007,-0.976,-0.001,-0.004,-0.001,0.978,0.997,0.015,0.967,-1.028,39.6805693,-75.7523248,4.74,0.02,0.03,0.89,-8957,11.666,0,0,7,154,32781,14106,-4,0,0,1,0,0,0,0
17.7.2015,33:15.8,91,-3.011,0.212,171.388,-2.969,0.149,171.602,-9,13,-49,-0.052,-0.003,-0.971,0,0.001,0.004,0.972,0.995,0.013,0.966,-0.235,39.6805693,-75.7523248,4.758,0.03,0.03,0.89,-8957,11.668,0,0,7,158,32781,14106,-4,0,0,1,0,0,0,0
17.7.2015,33:15.9,91,-2.955,0.167,171.388,-2.952,0.367,171.032,14,-23,-19,-0.051,-0.006,-0.976,-0.003,-0.004,-0.002,0.978,0.988,0.008,0.96,-0.041,39.6805693,-75.7523249,4.765,0.01,0.05,0.89,-8957,11.665,0,0,7,157,32781,14106,-4,0,0,1,0,0,0,0
17.7.2015,33:16.1,91,-2.943,0.225,171.385,-2.935,0.286,171.542,-47,-13,-49,-0.051,-0.005,-0.975,-0.001,0.001,0,0.976,1.006,0.017,1.13,1.672,39.6805693,-75.7523249,4.765,0.01,0.05,0.89,-8957,11.667,0,0,7,159,32781,14108,-4,0,0,1,0,0,0,0
17.7.2015,33:16.1,91,-2.943,0.225,171.385,-2.935,0.286,171.542,-47,-13,-49,-0.051,-0.005,-0.975,-0.001,0.001,0,0.976,1.006,0.017,1.13,1.672,39.6805692,-75.7523249,4.782,0.02,0.04,0.89,-8957,11.671,0,0,7,158,32783,14108,-4,0,0,1,0,0,0,0
17.7.2015,33:16.2,91,-2.967,0.204,171.383,-2.906,0.086,171.542,4,41,0,-0.051,-0.002,-0.975,0.002,0.002,0,0.977,1.002,0.015,0.964,-0.007,39.6805692,-75.7523249,4.782,0.02,0.04,0.89,-8957,11.668,0,0,7,160,32783,14108,-4,0,0,1,0,0,0,0
17.7.2015,33:16.3,91,-2.973,0.224,171.383,-2.918,0.418,170.752,-10,25,34,-0.051,-0.007,-0.971,0.001,-0.003,0.002,0.973,0.997,0.009,1.084,1.216,39.6805692,-75.752325,4.791,0.01,0.05,0.89,-8957,11.667,0,0,7,158,32783,14108,-4,0,0,1,0,0,0,0
17.7.2015,33:16.4,91,-3.004,0.213,171.385,-3.015,0.086,171.542,-28,22,-21,-0.053,-0.002,-0.973,0.002,0.002,0.001,0.974,1.014,0.02,1.109,1.425,39.6805692,-75.752325,4.791,0.01,0.05,0.89,-8957,11.664,0,0,7,153,32784,14108,-4,0,0,1,0,0,0,0
17.7.2015,33:16.6,91,-2.96,0.195,171.401,-2.998,0.178,172.512,42,21,-26,-0.052,-0.003,-0.975,-0.001,-0.002,-0.001,0.977,1.009,0.016,0.963,-0.195,39.6805692,-75.752325,4.791,0.01,0.05,0.89,-8957,11.67,0,0,7,156,32784,14108,-5,-1,0,1,0,0,0,0
17.7.2015,33:16.6,91,-2.964,0.253,171.406,-3.095,0.292,171.602,56,-33,56,-0.054,-0.005,-0.976,-0.003,0,0.001,0.977,1.002,0.015,0.97,0.075,39.6805692,-75.752325,4.796,0.04,0.04,0.89,-8957,11.671,0,0,7,159,32786,14108,-5,-1,0,1,0,0,0,0
17.7.2015,33:16.7,91,-2.964,0.253,171.406,-3.095,0.292,171.602,56,-33,56,-0.054,-0.005,-0.976,-0.003,0,0.001,0.977,1.002,0.015,0.97,0.075,39.6805692,-75.752325,4.796,0.04,0.04,0.89,-8957,11.676,0,0,7,138,32786,14109,-5,-1,0,1,0,0,0,0
17.7.2015,33:16.8,91,-2.964,0.253,171.406,-3.095,0.292,171.602,56,-33,56,-0.054,-0.005,-0.976,-0.003,0,0.001,0.977,1.002,0.015,0.97,0.075,39.6805692,-75.752325,4.796,0.04,0.04,0.89,-8957,11.669,0,0,7,138,32786,14109,-5,-1,0,1,0,0,0,0
17.7.2015,33:17.1,91,-3.045,0.261,171.422,-2.854,0.304,171.492,-21,-55,-11,-0.05,-0.005,-0.976,0.004,-0.001,0.002,0.977,1.002,0.011,0.977,0.015,39.6805692,-75.7523252,4.806,0.02,0.04,0.89,-8957,11.667,0,0,7,138,32786,14109,-5,-1,0,1,0,0,0,0
17.7.2015,33:17.2,91,-3.015,0.254,171.421,-3.101,0.43,172.342,-15,-4,41,-0.054,-0.007,-0.978,-0.001,-0.003,-0.002,0.979,1.011,0.016,1.084,1.11,39.6805692,-75.7523252,4.808,0.02,0.05,0.89,-8957,11.668,0,0,7,156,32787,14109,-5,-1,0,1,0,0,0,0
17.7.2015,33:17.2,91,-3.012,0.283,171.419,-3.004,0.155,171.542,-15,12,38,-0.052,-0.003,-0.972,0,0.002,0.004,0.974,1.015,0.018,0.979,-1.083,39.6805692,-75.7523252,4.808,0.02,0.05,0.89,-8957,11.668,0,0,7,155,32787,14109,-5,-1,0,1,0,0,0,0
17.7.2015,33:17.3,91,-3.037,0.248,171.421,-3.032,0.229,171.492,52,-23,-14,-0.053,-0.004,-0.972,0.001,0,0.004,0.973,1.012,0.014,0.978,-1.081,39.6805692,-75.7523252,4.808,0.02,0.05,0.89,-8957,11.666,0,0,7,160,32787,14109,-5,-1,0,1,0,0,0,0
17.7.2015,33:17.3,91,-3.005,0.238,171.423,-2.923,0.212,171.542,26,41,47,-0.051,-0.004,-0.973,0.001,0,0.001,0.975,1.009,0.011,0.98,-0.026,39.6805692,-75.7523253,4.81,0.01,0.04,0.89,-8957,11.67,0,0,7,160,32789,14109,-5,-1,0,1,0,0,0,0
17.7.2015,33:17.4,91,-2.971,0.203,171.422,-2.837,0.057,171.492,32,-11,-65,-0.05,-0.001,-0.974,0.001,0.002,0,0.975,1.007,0.009,0.987,0.085,39.6805692,-75.7523253,4.81,0.01,0.04,0.89,-8957,11.666,0,0,7,158,32789,14109,-5,-1,0,1,0,0,0,0
17.7.2015,33:17.5,91,-2.962,0.2,171.422,-2.923,0.378,171.492,37,29,-33,-0.051,-0.007,-0.975,0,-0.004,-0.001,0.976,1.005,0.008,0.992,0.139,39.6805692,-75.7523253,4.81,0.01,0.04,0.89,-8957,11.668,0,0,7,156,32789,14110,-5,-1,0,1,0,0,0,0
17.7.2015,33:17.5,91,-2.955,0.233,171.424,-3.118,0.264,171.542,-59,-53,47,-0.054,-0.005,-0.976,-0.003,0,-0.002,0.977,1.015,0.013,1.096,1.14,39.6805692,-75.7523253,4.813,0.03,0.04,0.89,-8957,11.665,0,0,7,158,32789,14110,-5,-1,0,1,0,0,0,0
17.7.2015,33:17.6,91,-2.979,0.215,171.425,-3.032,0.057,171.542,12,44,-14,-0.053,-0.001,-0.976,-0.001,0.002,-0.001,0.977,1.02,0.016,0.991,-0.966,39.6805692,-75.7523253,4.813,0.03,0.04,0.89,-8957,11.669,0,0,7,156,32789,14110,-5,-1,0,1,0,0,0,0
17.7.2015,33:17.7,91,-3.01,0.199,171.428,-3.262,0.384,171.772,-9,4,-1,-0.057,-0.007,-0.976,-0.002,-0.005,-0.001,0.978,1.016,0.015,0.988,-0.069,39.6805692,-75.7523253,4.813,0.03,0.04,0.89,-8957,11.665,0,0,7,154,32789,14110,-5,-1,0,1,0,0,0,0
17.7.2015,33:17.8,91,-3.029,0.205,171.428,-3.038,0.447,171.542,12,46,25,-0.053,-0.008,-0.973,0.002,-0.004,0.003,0.975,1.014,0.014,0.991,0.09,39.6805691,-75.7523253,4.819,0.02,0.03,0.89,-8957,11.666,0,0,7,154,32789,14110,-5,-1,0,1,0,0,0,0
17.7.2015,33:17.8,91,-3.016,0.21,171.446,-2.986,0.349,171.542,-18,-49,32,-0.052,-0.006,-0.975,0.002,-0.002,0.001,0.977,1.012,0.013,0.992,0.049,39.6805691,-75.7523253,4.819,0.02,0.03,0.89,-8957,11.665,0,0,7,155,32791,14110,-5,-1,0,1,0,0,0,0
17.7.2015,33:17.9,91,-3.022,0.24,171.438,-3.216,0.246,171.542,2,21,-19,-0.056,-0.004,-0.976,-0.003,0,-0.001,0.977,1.017,0.013,1.08,0.904,39.6805691,-75.7523254,4.818,0.01,0.04,0.89,-8957,11.665,0,0,7,155,32791,14111,-5,-1,0,1,0,0,0,0
17.7.2015,33:18.0,91,-3.048,0.263,171.434,-3.021,0.292,171.492,-13,36,31,-0.053,-0.005,-0.975,0.001,0,0,0.976,1.023,0.015,0.997,-0.737,39.6805691,-75.7523254,4.818,0.01,0.04,0.89,-8957,11.666,0,0,7,158,32791,14111,-5,-1,0,1,0,0,0,0
17.7.2015,33:18.0,91,-3.069,0.271,171.457,-3.147,0.384,171.542,2,29,2,-0.055,-0.007,-0.975,0,-0.002,0,0.977,1.02,0.013,0.999,-0.768,39.6805691,-75.7523254,4.818,0.01,0.04,0.89,-8957,11.665,0,0,7,154,32792,14111,-5,-1,0,1,0,0,0,0
17.7.2015,33:18.1,91,-3.104,0.274,171.456,-3.342,0.321,171.492,41,-33,1,-0.058,-0.006,-0.973,-0.001,-0.001,0.001,0.975,1.019,0.012,0.992,-0.032,39.6805691,-75.7523254,4.818,0.01,0.04,0.89,-8957,11.668,0,0,7,159,32792,14111,-5,-1,0,1,0,0,0,0
17.7.2015,33:18.2,91,-3.091,0.27,171.454,-3.004,0.195,170.752,31,-19,35,-0.052,-0.003,-0.975,0.002,0.001,0,0.976,1.016,0.011,0.991,-0.102,39.6805691,-75.7523254,4.821,0.03,0.03,0.89,-8957,11.668,0,0,7,156,32792,14111,-5,-1,0,1,0,0,0,0
17.7.2015,33:18.2,91,-3.091,0.27,171.454,-3.004,0.195,170.752,31,-19,35,-0.052,-0.003,-0.975,0.002,0.001,0,0.976,1.016,0.011,0.991,-0.102,39.6805691,-75.7523254,4.821,0.03,0.03,0.89,-8957,11.666,0,0,7,155,32792,14111,-5,-1,0,1,0,0,0,0
17.7.2015,33:18.3,91,-3.12,0.219,171.459,-3.21,0.241,171.492,8,47,69,-0.056,-0.004,-0.974,0,-0.001,0.001,0.976,1.032,0.02,1.169,1.691,39.6805691,-75.7523254,4.825,0.02,0.03,0.89,-8957,11.666,0,0,7,155,32793,14111,-5,-1,0,1,0,0,0,0
17.7.2015,33:18.4,91,-3.116,0.197,171.459,-3.055,-0.034,171.032,113,-54,-11,-0.053,0.001,-0.976,0.002,0.002,-0.001,0.977,1.042,0.025,0.998,-1.753,39.6805691,-75.7523254,4.825,0.02,0.03,0.89,-8957,11.667,0,0,7,156,32793,14111,-5,-1,0,1,0,0,0,0
17.7.2015,33:18.4,91,-3.11,0.175,171.46,-3.095,0.223,171.712,-3,-32,9,-0.054,-0.004,-0.977,0.001,-0.003,-0.002,0.978,1.038,0.022,0.995,-1.682,39.6805691,-75.7523254,4.825,0.02,0.03,0.89,-8957,11.667,0,0,7,158,32793,14111,-5,-1,0,1,0,0,0,0
17.7.2015,33:18.5,91,-3.106,0.21,171.461,-3.21,0.412,171.492,13,-11,27,-0.056,-0.007,-0.972,-0.001,-0.003,0.003,0.973,1.034,0.019,0.989,-0.08,39.6805691,-75.7523254,4.825,0.02,0.03,0.89,-8957,11.665,0,0,7,160,32793,14111,-5,-1,0,1,0,0,0,0
17.7.2015,33:18.6,91,-3.106,0.21,171.461,-3.21,0.412,171.492,13,-11,27,-0.056,-0.007,-0.972,-0.001,-0.003,0.003,0.973,1.034,0.019,0.989,-0.08,39.6805691,-75.7523254,4.825,0.02,0.04,0.89,-8957,11.668,0,0,7,160,32793,14111,-5,-1,0,1,0,0,0,0
17.7.2015,33:18.6,91,-3.106,0.21,171.461,-3.21,0.412,171.492,13,-11,27,-0.056,-0.007,-0.972,-0.001,-0.003,0.003,0.973,1.034,0.019,0.989,-0.08,39.6805691,-75.7523254,4.825,0.02,0.04,0.89,-8957,11.671,0,0,7,159,32795,14111,-5,-1,0,1,0,0,0,0
17.7.2015,33:18.8,91,-3.085,0.257,171.46,-2.923,0.212,170.812,14,-27,19,-0.051,-0.004,-0.975,0.002,0.002,0,0.976,1.04,0.021,1.164,1.668,39.680569,-75.7523255,4.836,0.01,0.03,0.89,-8957,11.665,0,0,7,157,32795,14114,-5,-1,0,1,0,0,0,0
17.7.2015,33:18.9,91,-3.088,0.26,171.461,-3.36,0.321,171.542,-41,8,11,-0.059,-0.006,-0.974,-0.005,0,0,0.976,1.04,0.02,0.993,0.025,39.680569,-75.7523255,4.836,0.01,0.03,0.89,-8957,11.664,0,0,7,158,32795,14114,-5,-1,0,1,0,0,0,0
17.7.2015,33:19.0,91,-3.096,0.279,171.463,-2.975,0.183,171.542,-3,-25,-33,-0.052,-0.003,-0.976,0.001,0.002,-0.001,0.977,1.035,0.017,0.987,-0.088,39.6805691,-75.7523255,4.831,0.02,0.04,0.89,-8957,11.665,0,0,7,157,32795,14114,-5,-1,0,1,0,0,0,0
17.7.2015,33:19.0,91,-3.107,0.273,171.462,-3.032,0.201,171.542,30,-5,19,-0.053,-0.004,-0.977,0.003,0.002,-0.001,0.978,1.031,0.016,0.999,0.101,39.6805691,-75.7523255,4.831,0.02,0.04,0.89,-8957,11.667,0,0,7,155,32797,14114,-5,-1,0,1,0,0,0,0
17.7.2015,33:19.1,91,-3.105,0.291,171.464,-3.049,0.493,171.542,-49,-10,36,-0.053,-0.009,-0.975,0.002,-0.003,0,0.976,1.04,0.019,1.125,1.33,39.680569,-75.7523256,4.833,0.01,0.02,0.89,-8957,11.662,0,0,7,155,32797,14114,-5,-1,0,1,0,0,0,0
17.7.2015,33:19.2,91,-3.094,0.287,171.464,-3.084,0.309,171.542,-59,-20,-6,-0.054,-0.005,-0.973,-0.001,0,0.003,0.974,1.048,0.023,1.013,-1.073,39.680569,-75.7523256,4.833,0.01,0.02,0.89,-8957,11.666,0,0,7,158,32797,14113,-5,-1,0,1,0,0,0,0
17.7.2015,33:19.2,91,-3.116,0.319,171.466,-3.256,0.395,171.262,8,-3,-7,-0.057,-0.007,-0.97,-0.001,0.001,0.004,0.971,1.045,0.019,1.009,-1.207,39.680569,-75.7523256,4.833,0.01,0.02,0.89,-8957,11.665,0,0,7,158,32797,14113,-5,-1,0,1,0,0,0,0
17.7.2015,33:19.3,91,-3.129,0.316,171.462,-3.095,0.241,171.262,-57,-26,2,-0.054,-0.004,-0.978,0.001,0.003,-0.003,0.979,1.042,0.018,1.01,0.002,39.680569,-75.7523256,4.833,0.01,0.02,0.89,-8957,11.667,0,0,7,154,32797,14113,-5,-1,0,1,0,0,0,0
17.7.2015,33:19.3,91,-3.126,0.307,171.462,-2.986,0.401,171.202,52,5,-26,-0.052,-0.007,-0.976,0.003,-0.001,0,0.978,1.039,0.017,1.013,0.076,39.680569,-75.7523256,4.833,0.03,0.05,0.89,-8957,11.665,0,0,7,157,32797,14113,-5,-1,0,1,0,0,0,0
17.7.2015,33:19.4,91,-3.148,0.29,171.462,-3.245,0.092,171.542,-24,14,19,-0.057,-0.002,-0.977,-0.001,0.002,0,0.978,1.037,0.015,1.01,0.007,39.680569,-75.7523256,4.833,0.03,0.05,0.89,-8957,11.665,0,0,7,159,32798,14113,-5,-1,0,1,0,0,0,0
17.7.2015,33:19.5,91,-3.139,0.287,171.462,-3.084,0.155,172.282,-7,2,-37,-0.054,-0.003,-0.973,0.001,0.001,0.002,0.975,1.043,0.017,1.104,0.929,39.680569,-75.7523257,4.821,-0.02,0.05,0.88,-8957,11.665,0,0,7,156,32799,14114,-5,-1,0,1,0,0,0,0
17.7.2015,33:19.6,91,-3.104,0.289,171.461,-3.101,0.418,172.282,-32,-49,9,-0.054,-0.007,-0.975,0,-0.003,0,0.976,1.048,0.018,1.007,-0.97,39.680569,-75.7523257,4.821,-0.02,0.05,0.88,-8957,11.668,0,0,7,160,32799,14114,-5,-1,0,1,0,0,0,0
17.7.2015,33:19.6,91,-3.104,0.289,171.461,-3.101,0.418,172.282,-32,-49,9,-0.054,-0.007,-0.975,0,-0.003,0,0.976,1.048,0.018,1.007,-0.97,39.680569,-75.7523257,4.821,-0.02,0.05,0.88,-8957,11.668,0,0,7,157,32799,14114,-5,-1,0,1,0,0,0,0
17.7.2015,33:19.8,91,-3.153,0.286,171.462,-3.176,-0.034,171.492,-10,10,-12,-0.055,0.001,-0.974,0,0.004,0.001,0.975,1.039,0.011,1.015,0.071,39.680569,-75.7523257,4.815,0.05,0.05,0.88,-8957,11.666,0,0,7,156,32800,14114,-5,-1,0,1,0,0,0,0
17.7.2015,33:19.8,91,-3.165,0.266,171.46,-3.021,0.086,171.492,72,-25,-15,-0.053,-0.002,-0.972,0.003,0.002,0.002,0.973,1.037,0.009,1.022,0.088,39.680569,-75.7523257,4.815,0.05,0.05,0.88,-8957,11.666,0,0,7,156,32801,14114,-5,-1,0,1,0,0,0,0
17.7.2015,33:19.9,91,-3.169,0.252,171.46,-2.86,0.332,171.542,-4,73,31,-0.05,-0.006,-0.974,0.006,-0.002,0,0.975,1.045,0.014,1.12,1.039,39.680569,-75.7523257,4.815,0.05,0.05,0.88,-8957,11.662,0,0,7,156,32801,14114,-5,-1,0,1,0,0,0,0
17.7.2015,33:20.0,91,-3.159,0.27,171.46,-3.193,0.309,171.542,13,-48,-3,-0.056,-0.005,-0.976,0,-0.001,-0.001,0.978,1.052,0.018,1.025,-0.913,39.680569,-75.7523258,4.81,0.03,0.05,0.88,-8957,11.664,0,0,7,158,32801,14114,-5,-1,0,1,0,0,0,0
17.7.2015,33:20.0,91,-3.146,0.278,171.461,-3.388,0.286,171.542,17,22,8,-0.059,-0.005,-0.972,-0.004,0,0.002,0.974,1.049,0.016,1.025,-0.298,39.680569,-75.7523258,4.81,0.03,0.05,0.88,-8957,11.665,0,0,7,155,32801,14114,-5,-1,0,1,0,0,0,0
17.7.2015,33:20.1,91,-3.156,0.282,171.462,-3.049,0.504,172.222,34,20,33,-0.053,-0.009,-0.977,0.002,-0.004,-0.002,0.978,1.047,0.014,1.021,-0.009,39.680569,-75.7523258,4.81,0.03,0.05,0.88,-8957,11.668,0,0,7,160,32801,14114,-5,-1,0,1,0,0,0,0
17.7.2015,33:20.2,91,-3.126,0.316,171.462,-3.072,0.395,171.262,-11,-47,-28,-0.054,-0.007,-0.974,0.001,0,0.001,0.975,1.045,0.013,1.021,-0.023,39.680569,-75.7523258,4.804,0.02,0.04,0.88,-8957,11.665,0,0,7,160,32801,14114,-5,-1,0,1,0,0,0,0
17.7.2015,33:20.2,91,-3.131,0.302,171.463,-3.325,0.258,171.262,-4,-12,74,-0.058,-0.004,-0.976,-0.003,0.001,-0.001,0.978,1.048,0.014,1.121,1.03,39.680569,-75.7523258,4.804,0.02,0.04,0.88,-8957,11.664,0,0,7,154,32801,14115,-5,-1,0,1,0,0,0,0
17.7.2015,33:20.4,91,-3.115,0.255,171.463,-3.084,0.246,171.542,-19,2,18,-0.054,-0.004,-0.972,0,0,0.003,0.973,1.055,0.017,1.023,-0.945,39.680569,-75.7523258,4.793,0.01,0.04,0.88,-8957,11.667,0,0,7,157,32803,14115,-5,-1,0,1,0,0,0,0
17.7.2015,33:20.5,91,-3.084,0.256,171.46,-3.273,0.241,171.542,-53,19,13,-0.057,-0.004,-0.975,-0.005,0,0,0.976,1.052,0.014,1.03,0.069,39.680569,-75.7523258,4.793,0.01,0.04,0.88,-8957,11.666,0,0,7,157,32803,14115,-5,-1,0,1,0,0,0,0
17.7.2015,33:20.5,91,-3.119,0.288,171.459,-3.325,0.43,171.542,-44,55,19,-0.058,-0.007,-0.976,-0.003,-0.002,-0.001,0.978,1.05,0.014,1.027,0.015,39.680569,-75.7523258,4.793,0.01,0.04,0.88,-8957,11.665,0,0,7,159,32803,14115,-5,-1,0,1,0,0,0,0
17.7.2015,33:20.7,91,-3.144,0.308,171.451,-3.216,0.338,170.472,-50,-37,8,-0.056,-0.006,-0.972,-0.001,0.002,0.001,0.974,1.055,0.015,1.117,0.917,39.680569,-75.7523258,4.788,0.03,0.04,0.88,-8957,11.666,0,0,7,159,32803,14115,-5,-1,0,1,0,0,0,0
17.7.2015,33:20.7,91,-3.157,0.274,171.457,-3.21,0.201,171.542,13,-19,-10,-0.056,-0.004,-0.975,-0.001,0.001,-0.001,0.976,1.06,0.018,1.033,-0.849,39.6805689,-75.7523259,4.785,0.01,0.02,0.88,-8957,11.665,0,0,7,156,32805,14117,-5,-1,0,1,0,0,0,0
17.7.2015,33:20.8,91,-3.147,0.26,171.461,-2.998,0.321,171.492,14,-18,-2,-0.052,-0.006,-0.976,0.002,-0.002,-0.001,0.977,1.058,0.017,1.036,-0.335,39.6805689,-75.7523259,4.785,0.01,0.02,0.88,-8957,11.665,0,0,7,159,32805,14117,-5,-1,0,1,0,0,0,0
17.7.2015,33:20.9,91,-3.114,0.241,171.459,-3.015,0.092,172.282,38,6,-67,-0.053,-0.002,-0.973,0.001,0.002,0.003,0.974,1.056,0.015,1.03,-0.036,39.6805689,-75.7523259,4.785,0.01,0.02,0.88,-8957,11.665,0,0,7,157,32805,14117,-5,-1,0,1,0,0,0,0
17.7.2015,33:20.9,91,-3.08,0.245,171.46,-2.923,0.447,171.542,-10,38,-15,-0.051,-0.008,-0.976,0,-0.004,0,0.977,1.054,0.013,1.031,-0.021,39.6805689,-75.7523259,4.775,0.03,0.06,0.88,-8957,11.667,0,0,7,156,32805,14117,-5,-1,0,1,0,0,0,0
17.7.2015,33:21.0,91,-3.088,0.241,171.46,-3.164,0.183,171.542,-2,23,-23,-0.055,-0.003,-0.975,-0.003,0.001,0,0.976,1.052,0.012,1.042,0.129,39.6805689,-75.7523259,4.775,0.03,0.06,0.88,-8957,11.665,0,0,7,158,32805,14116,-5,-1,0,1,0,0,0,0
17.7.2015,33:21.1,91,-3.088,0.241,171.46,-3.164,0.183,171.542,-2,23,-23,-0.055,-0.003,-0.975,-0.003,0.001,0,0.976,1.052,0.012,1.042,0.129,39.680569,-75.7523259,4.766,0.02,0.06,0.88,-8957,11.665,0,0,7,157,32805,14116,-5,-1,0,1,0,0,0,0
17.7.2015,33:21.2,91,-3.134,0.249,171.459,-3.199,0.201,172.222,37,22,12,-0.056,-0.004,-0.974,0,0.001,0.001,0.976,1.06,0.015,1.025,-0.19,39.680569,-75.7523259,4.766,0.02,0.06,0.88,-8957,11.666,0,0,7,157,32807,14116,-5,-1,0,1,0,0,0,0
17.7.2015,33:21.3,91,-3.102,0.275,171.46,-2.872,0.504,171.492,20,-15,8,-0.05,-0.009,-0.973,0.004,-0.003,0.001,0.974,1.058,0.013,1.042,0.212,39.680569,-75.7523259,4.766,0.02,0.06,0.88,-8957,11.667,0,0,7,158,32807,14116,-5,-1,0,1,0,0,0,0
17.7.2015,33:21.3,91,-3.102,0.287,171.462,-3.164,0.367,170.752,-46,19,-33,-0.055,-0.006,-0.973,-0.001,-0.001,0.001,0.975,1.057,0.013,1.039,0.031,39.6805689,-75.7523259,4.752,0.01,-0.01,0.88,-8957,11.665,0,0,7,159,32808,14116,-5,-1,0,1,0,0,0,0
17.7.2015,33:21.4,91,-3.08,0.318,171.462,-3.245,0.395,172.002,11,19,-41,-0.057,-0.007,-0.973,-0.004,0.001,0.002,0.975,1.059,0.014,1.178,1.358,39.6805689,-75.7523259,4.752,0.01,-0.01,0.88,-8957,11.667,0,0,7,159,32808,14116,-5,-1,0,1,0,0,0,0
17.7.2015,33:21.5,91,-3.116,0.351,171.46,-3.193,0.378,171.262,7,-23,-35,-0.056,-0.007,-0.977,0,0.001,-0.002,0.978,1.075,0.022,1.19,1.488,39.6805689,-75.7523259,4.752,0.01,-0.01,0.88,-8957,11.666,0,0,7,157,32808,14118,-5,-1,0,1,0,0,0,0
17.7.2015,33:21.6,91,-3.066,0.357,171.465,-2.958,0.338,171.262,8,-15,13,-0.052,-0.006,-0.974,0.001,0.001,0.002,0.975,1.075,0.022,1.025,-1.616,39.6805689,-75.7523259,4.744,0.02,0.07,0.88,-8957,11.664,0,0,7,160,32808,14118,-5,-1,0,1,0,0,0,0
17.7.2015,33:21.8,91,-3.055,0.367,171.458,-3.314,0.384,170.522,31,88,35,-0.058,-0.007,-0.977,-0.004,0,-0.001,0.978,1.067,0.016,1.038,0.027,39.6805689,-75.7523258,4.732,0.03,0.04,0.88,-8957,11.665,0,0,7,160,32809,14118,-5,-1,0,1,0,0,0,0
17.7.2015,33:21.9,91,-3.093,0.331,171.462,-3.067,0.201,171.262,16,-15,1,-0.053,-0.004,-0.975,0.001,0.001,0,0.976,1.079,0.021,1.146,1.058,39.6805689,-75.7523258,4.732,0.03,0.04,0.88,-8957,11.668,0,0,7,156,32811,14120,-5,-1,0,1,0,0,0,0
17.7.2015,33:21.9,91,-3.108,0.329,171.46,-3.291,0.304,171.262,18,15,22,-0.057,-0.005,-0.976,0,0,-0.001,0.978,1.079,0.022,1.048,-0.999,39.6805688,-75.7523259,4.718,-0.01,-0.02,0.88,-8957,11.667,0,0,7,154,32811,14120,-5,-1,0,1,0,0,0,0
17.7.2015,33:22.1,91,-3.078,0.295,171.452,-3.021,0.292,172.282,-8,-43,-17,-0.053,-0.005,-0.975,0,-0.002,0,0.976,1.073,0.017,1.04,-0.143,39.6805688,-75.7523259,4.718,-0.01,-0.02,0.88,-8957,11.665,0,0,7,160,32811,14120,-5,-1,0,1,0,0,0,0
17.7.2015,33:22.3,91,-3.078,0.295,171.452,-3.021,0.292,172.282,-8,-43,-17,-0.053,-0.005,-0.975,0,-0.002,0,0.976,1.073,0.017,1.04,-0.143,39.6805688,-75.7523258,4.698,0.03,0.04,0.88,-8957,11.67,0,0,7,32,32811,14120,-5,-1,0,1,0,0,0,0
17.7.2015,33:22.3,91,-3.103,0.286,171.443,-2.998,0.166,171.542,-13,3,1,-0.052,-0.003,-0.973,0.002,-0.001,0.002,0.974,1.081,0.02,1.041,-0.989,39.6805688,-75.7523257,4.691,0.03,0.02,0.88,-8957,11.667,0,0,7,158,32812,14120,-5,-1,0,1,0,0,0,0
17.7.2015,33:22.4,91,-3.125,0.295,171.443,-3.21,0.212,171.542,54,-3,-50,-0.056,-0.004,-0.972,-0.001,-0.001,0.003,0.974,1.078,0.017,1.046,0.029,39.6805688,-75.7523257,4.691,0.03,0.02,0.88,-8957,11.665,0,0,7,156,32812,14120,-5,-1,0,1,0,0,0,0
17.7.2015,33:22.5,91,-3.136,0.301,171.443,-3.067,0.201,171.262,-7,21,48,-0.053,-0.004,-0.975,0.002,0.002,0,0.976,1.075,0.015,1.042,-0.014,39.6805688,-75.7523257,4.691,0.03,0.02,0.88,-8957,11.666,0,0,7,159,32812,14120,-5,-1,0,1,0,0,0,0
17.7.2015,33:22.5,91,-3.148,0.268,171.444,-3.067,0.166,171.542,-21,-15,-15,-0.053,-0.003,-0.973,0.001,0,0.002,0.974,1.073,0.013,1.047,0.019,39.6805689,-75.7523256,4.665,0.04,0.05,0.88,-8957,11.67,0,0,7,156,32812,14120,-5,-1,0,1,0,0,0,0
17.7.2015,33:22.6,91,-3.133,0.273,171.444,-3.147,0.115,172.282,42,11,60,-0.055,-0.002,-0.973,-0.001,0.002,0.002,0.974,1.08,0.016,1.215,1.715,39.6805689,-75.7523256,4.665,0.04,0.05,0.88,-8957,11.664,0,0,7,154,32812,14120,-5,-1,0,1,0,0,0,0
17.7.2015,33:22.7,91,-3.111,0.244,171.439,-2.837,0.309,171.542,-22,18,-51,-0.05,-0.005,-0.974,0.004,-0.002,0.001,0.975,1.097,0.025,1.195,1.248,39.6805689,-75.7523256,4.665,0.04,0.05,0.88,-8957,11.668,0,0,7,157,32812,14120,-5,-1,0,1,0,0,0,0
17.7.2015,33:22.7,91,-3.104,0.251,171.442,-3.153,0.046,171.542,24,-42,1,-0.055,-0.001,-0.977,-0.001,0.003,-0.002,0.979,1.095,0.023,1.044,-1.753,39.6805688,-75.7523255,4.65,0.02,0.02,0.88,-8957,11.667,0,0,7,159,32812,14120,-5,-1,0,1,0,0,0,0
17.7.2015,33:22.8,91,-3.095,0.236,171.443,-3.147,0.246,171.542,-17,-15,-37,-0.055,-0.004,-0.979,-0.002,-0.001,-0.003,0.981,1.09,0.021,1.047,-0.065,39.6805688,-75.7523255,4.65,0.02,0.02,0.88,-8957,11.665,0,0,7,159,32812,14120,-5,-1,0,1,0,0,0,0
17.7.2015,33:22.8,91,-3.1,0.219,171.438,-2.895,0.132,171.492,-41,-20,50,-0.051,-0.002,-0.974,0.004,0.001,0.002,0.975,1.087,0.019,1.056,0.087,39.6805688,-75.7523255,4.65,0.02,0.02,0.88,-8957,11.667,0,0,7,155,32814,14120,-5,-1,0,1,0,0,0,0
17.7.2015,33:22.9,91,-3.09,0.245,171.441,-3.101,0.275,172.282,-20,-35,-47,-0.054,-0.005,-0.972,-0.001,0,0.003,0.973,1.085,0.016,1.055,0.035,39.6805688,-75.7523255,4.65,0.02,0.02,0.88,-8957,11.671,0,0,7,158,32815,14120,-5,-1,0,1,0,0,0,0
17.7.2015,33:23.0,91,-3.105,0.248,171.446,-3.055,0.384,171.542,8,-17,13,-0.053,-0.007,-0.976,0.002,-0.002,-0.001,0.977,1.087,0.017,1.154,1.017,39.6805688,-75.7523254,4.637,0.01,0.05,0.88,-8957,11.67,0,0,7,156,32815,14120,-5,-1,0,1,0,0,0,0
17.7.2015,33:23.1,91,-3.132,0.229,171.462,-3.193,-0.006,171.542,20,-38,-4,-0.056,0,-0.976,0,0.004,-0.001,0.978,1.095,0.021,1.141,0.87,39.6805688,-75.7523254,4.637,0.01,0.05,0.88,-8957,11.667,0,0,7,160,32815,14120,-5,-1,0,1,0,0,0,0
17.7.2015,33:23.2,91,-3.138,0.213,171.456,-3.153,0.309,171.492,-10,-38,14,-0.055,-0.005,-0.974,0,-0.001,0.002,0.976,1.09,0.018,1.063,0.179,39.6805687,-75.7523254,4.633,-0.01,0.02,0.88,-8957,11.667,0,0,7,156,32815,14120,-5,-1,0,1,0,0,0,0
17.7.2015,33:23.2,91,-3.16,0.217,171.491,-3.331,0.241,171.492,23,-29,34,-0.058,-0.004,-0.977,-0.003,0,-0.001,0.978,1.087,0.016,1.06,0.021,39.6805687,-75.7523254,4.633,-0.01,0.02,0.88,-8957,11.665,0,0,7,155,32815,14120,-5,-1,0,1,0,0,0,0
17.7.2015,33:23.3,91,-3.163,0.234,171.49,-3.101,0.086,171.492,10,-37,-18,-0.054,-0.002,-0.978,0.002,0.003,-0.002,0.979,1.085,0.013,1.059,0.013,39.6805687,-75.7523254,4.633,-0.01,0.02,0.88,-8957,11.666,0,0,7,158,32815,14120,-5,-1,0,1,0,0,0,0
17.7.2015,33:23.4,91,-3.129,0.225,171.486,-3.095,0.349,171.542,16,-18,3,-0.054,-0.006,-0.976,0,-0.002,0,0.977,1.085,0.013,1.15,0.949,39.6805687,-75.7523253,4.609,0.02,0.02,0.88,-8957,11.665,0,0,7,129,32816,14123,-5,-1,0,1,0,0,0,0
17.7.2015,33:23.4,91,-3.144,0.234,171.487,-3.233,0.212,171.492,54,33,-28,-0.056,-0.004,-0.974,-0.001,0.001,0.001,0.976,1.094,0.017,1.15,0.919,39.6805687,-75.7523253,4.609,0.02,0.02,0.88,-8957,11.665,0,0,7,160,32816,14123,-5,-1,0,1,0,0,0,0
17.7.2015,33:23.5,91,-3.121,0.211,171.487,-2.986,0.132,171.492,1,11,-45,-0.052,-0.002,-0.971,0.002,0.001,0.004,0.972,1.095,0.016,1.056,-0.98,39.6805687,-75.7523253,4.609,0.02,0.02,0.88,-8957,11.668,0,0,7,159,32816,14123,-5,-1,0,1,0,0,0,0
17.7.2015,33:23.5,91,-3.085,0.205,171.497,-2.986,0.286,171.602,8,-34,-33,-0.052,-0.005,-0.973,0,-0.002,0.001,0.974,1.092,0.013,1.06,-0.893,39.6805687,-75.7523253,4.597,0.02,0.04,0.88,-8957,11.667,0,0,7,158,32817,14123,-5,-1,0,1,0,0,0,0
17.7.2015,33:23.6,91,-3.087,0.204,171.523,-3.164,0.223,172.222,35,-23,15,-0.055,-0.004,-0.977,-0.002,0,-0.003,0.979,1.089,0.012,1.058,0.014,39.6805687,-75.7523253,4.597,0.02,0.04,0.88,-8957,11.667,0,0,7,159,32817,14123,-5,-1,0,1,0,0,0,0
17.7.2015,33:23.7,91,-3.114,0.2,171.554,-3.147,0.241,171.492,13,-14,18,-0.055,-0.004,-0.975,0.001,-0.001,0,0.976,1.086,0.011,1.051,-0.094,39.6805687,-75.7523253,4.597,0.02,0.04,0.88,-8957,11.667,0,0,7,158,32817,14123,-5,-1,0,1,0,0,0,0
17.7.2015,33:23.7,91,-3.118,0.233,171.554,-3.153,0.275,171.492,-13,-42,-7,-0.055,-0.005,-0.973,0,0,0.001,0.975,1.083,0.009,1.063,0.082,39.6805686,-75.7523252,4.576,0.02,0.02,0.88,-8957,11.668,0,0,7,155,32818,14123,-5,-1,0,1,0,0,0,0
17.7.2015,33:23.8,91,-3.114,0.248,171.576,-3.325,0.023,172.282,-34,3,-4,-0.058,0,-0.976,-0.003,0.004,-0.002,0.978,1.091,0.013,1.164,1.121,39.6805686,-75.7523252,4.576,0.02,0.02,0.88,-8957,11.667,0,0,7,156,32818,14121,-5,-1,0,1,0,0,0,0
17.7.2015,33:23.8,91,-3.106,0.214,171.609,-3.015,0.178,171.542,-37,-37,-44,-0.053,-0.003,-0.978,0.002,0,-0.003,0.979,1.097,0.016,1.077,-0.85,39.6805686,-75.7523252,4.576,0.02,0.02,0.88,-8957,11.667,0,0,7,155,32820,14121,-5,-1,0,1,0,0,0,0
17.7.2015,33:23.9,91,-3.087,0.228,171.61,-3.084,0.487,171.542,8,22,12,-0.054,-0.009,-0.973,-0.001,-0.004,0.001,0.975,1.096,0.015,1.082,-0.85,39.6805685,-75.7523252,4.576,0,0,0.88,-8957,11.665,0,0,7,156,32820,14121,-5,-1,0,1,0,0,0,0
17.7.2015,33:24.0,91,-3.12,0.253,171.61,-3.153,0.264,171.542,43,-5,-1,-0.055,-0.005,-0.979,0.001,0,-0.004,0.98,1.095,0.015,1.069,-0.11,39.6805685,-75.7523252,4.576,0,0,0.88,-8957,11.666,0,0,7,158,32820,14121,-5,-1,0,1,0,0,0,0
17.7.2015,33:24.0,91,-3.104,0.249,171.608,-3.004,0.309,171.542,29,31,10,-0.052,-0.005,-0.976,0.002,-0.001,0,0.977,1.092,0.014,1.063,-0.164,39.6805685,-75.7523252,4.576,0,0,0.88,-8957,11.666,0,0,7,161,32820,14121,-5,-1,0,1,0,0,0,0
17.7.2015,33:24.1,91,-3.071,0.282,171.605,-3.084,0.332,171.492,-33,-2,-19,-0.054,-0.006,-0.976,-0.002,0,-0.001,0.978,1.091,0.013,1.074,0.151,39.6805685,-75.7523252,4.576,0,0,0.88,-8957,11.666,0,0,7,160,32820,14121,-5,-1,0,1,0,0,0,0
17.7.2015,33:24.2,91,-3.087,0.292,171.606,-3.21,0.384,171.492,46,2,-24,-0.056,-0.007,-0.972,-0.003,-0.001,0.003,0.973,1.097,0.015,1.161,0.909,39.6805686,-75.752325,4.547,0.04,0.09,0.88,-8957,11.665,0,0,7,161,32820,14124,-5,-1,0,1,0,0,0,0
17.7.2015,33:24.2,91,-3.094,0.3,171.605,-3.067,-0.006,171.262,-10,16,-9,-0.053,0,-0.975,0,0.007,0,0.976,1.104,0.018,1.083,-0.656,39.6805686,-75.752325,4.547,0.04,0.09,0.88,-8957,11.668,0,0,7,156,32821,14124,-5,-1,0,1,0,0,0,0
17.7.2015,33:24.3,91,-3.124,0.288,171.603,-3.262,0.355,171.492,19,-17,-4,-0.057,-0.006,-0.973,0,-0.001,0.003,0.974,1.101,0.016,1.073,-0.865,39.6805686,-75.7523249,4.522,0.04,0.03,0.88,-8957,11.666,0,0,7,158,32821,14124,-5,-1,0,1,0,0,0,0
17.7.2015,33:24.4,91,-3.091,0.278,171.605,-3.004,0.309,171.492,-18,-8,-39,-0.052,-0.005,-0.977,0.001,-0.001,-0.001,0.978,1.099,0.015,1.083,0.144,39.6805686,-75.7523249,4.522,0.04,0.03,0.88,-8957,11.664,0,0,7,155,32821,14124,-5,-1,0,1,0,0,0,0
17.7.2015,33:24.4,91,-3.086,0.292,171.605,-3.095,0.321,171.492,-72,-14,-16,-0.054,-0.006,-0.974,0,0,0.001,0.975,1.098,0.013,1.076,-0.042,39.6805686,-75.7523249,4.522,0.04,0.03,0.88,-8957,11.666,0,0,7,155,32821,14124,-5,-1,0,1,0,0,0,0
17.7.2015,33:24.5,91,-3.109,0.32,171.605,-3.004,0.292,171.262,24,32,-14,-0.052,-0.005,-0.975,0.004,0.001,-0.001,0.976,1.096,0.012,1.081,0.053,39.6805686,-75.7523249,4.522,0.04,0.03,0.88,-8957,11.665,0,0,7,157,32821,14124,-5,-1,0,1,0,0,0,0
17.7.2015,33:24.6,91,-3.113,0.306,171.606,-3.308,0.275,171.262,-6,-18,7,-0.058,-0.005,-0.975,-0.001,0.001,0,0.977,1.107,0.019,1.236,1.598,39.6805685,-75.7523248,4.507,0.02,0.02,0.88,-8957,11.664,0,0,7,159,32821,14124,-5,-1,0,1,0,0,0,0
17.7.2015,33:24.7,91,-3.064,0.323,171.601,-3.038,0.332,171.262,11,9,-21,-0.053,-0.006,-0.971,0,0,0.002,0.973,1.116,0.02,1.072,-1.624,39.6805685,-75.7523246,4.484,0.06,0.07,0.88,-8957,11.665,0,0,7,158,32823,14124,-5,-1,0,1,0,0,0,0
17.7.2015,33:24.8,91,-3.091,0.3,171.586,-3.21,0.332,171.262,27,-54,63,-0.056,-0.006,-0.976,-0.002,-0.001,-0.002,0.977,1.113,0.018,1.081,0.119,39.6805685,-75.7523246,4.484,0.06,0.07,0.88,-8957,11.665,0,0,7,157,32823,14124,-5,-1,0,1,0,0,0,0
17.7.2015,33:24.8,91,-3.1,0.32,171.571,-3.038,0.264,171.262,-3,0,19,-0.053,-0.005,-0.975,0.003,0.001,-0.001,0.977,1.111,0.017,1.082,0.058,39.6805685,-75.7523246,4.484,0.06,0.07,0.88,-8957,11.673,0,0,7,157,32823,14124,-5,-1,0,1,0,0,0,0
17.7.2015,33:24.9,91,-3.123,0.328,171.55,-3.193,0.475,171.262,25,-10,19,-0.056,-0.008,-0.973,0.001,-0.002,0.002,0.974,1.108,0.015,1.08,-0.058,39.6805685,-75.7523246,4.484,0.06,0.07,0.88,-8957,11.667,0,0,7,157,32823,14124,-5,-1,0,1,0,0,0,0
17.7.2015,33:24.9,91,-3.116,0.324,171.552,-3.118,0.292,171.262,-17,4,37,-0.054,-0.005,-0.976,0.001,0.001,-0.002,0.977,1.119,0.02,1.219,1.341,39.6805685,-75.7523245,4.463,0.03,0.05,0.88,-8957,11.664,0,0,7,156,32823,14126,-5,-1,0,1,0,0,0,0
17.7.2015,33:25.0,91,-3.101,0.336,171.546,-2.889,0.264,171.942,-27,-32,3,-0.05,-0.005,-0.975,0.004,0.001,-0.001,0.976,1.127,0.024,1.077,-1.349,39.6805685,-75.7523245,4.463,0.03,0.05,0.88,-8957,11.664,0,0,7,159,32823,14126,-5,-1,0,1,0,0,0,0
17.7.2015,33:25.1,91,-3.113,0.313,171.546,-3.245,0.304,171.262,29,-45,-15,-0.057,-0.005,-0.973,-0.002,0,0.002,0.975,1.122,0.021,1.072,-1.437,39.6805684,-75.7523244,4.452,0.04,0.04,0.88,-8957,11.666,0,0,7,160,32823,14126,-5,-1,0,1,0,0,0,0
17.7.2015,33:25.1,91,-3.113,0.313,171.546,-3.245,0.304,171.262,29,-45,-15,-0.057,-0.005,-0.973,-0.002,0,0.002,0.975,1.122,0.021,1.072,-1.437,39.6805684,-75.7523244,4.452,0.04,0.04,0.88,-8957,11.664,0,0,7,160,32823,14126,-5,-1,0,1,0,0,0,0
17.7.2015,33:25.2,91,-3.11,0.284,171.545,-3.176,0.304,171.542,43,10,-2,-0.055,-0.005,-0.977,-0.001,-0.001,0,0.979,1.114,0.017,1.078,0.021,39.6805684,-75.7523244,4.452,0.04,0.04,0.88,-8957,11.667,0,0,7,160,32825,14126,-5,-1,0,1,0,0,0,0
17.7.2015,33:25.3,91,-3.112,0.32,171.543,-3.113,0.183,171.942,-14,-37,-5,-0.054,-0.003,-0.972,0,0.003,0.004,0.973,1.112,0.014,1.124,0.478,39.6805684,-75.7523244,4.452,0.04,0.04,0.88,-8957,11.665,0,0,7,155,32825,14126,-5,-1,0,1,0,0,0,0
17.7.2015,33:25.4,91,-3.1,0.29,171.542,-2.895,0.321,171.492,30,-25,3,-0.051,-0.006,-0.972,0.003,-0.001,0.002,0.973,1.121,0.017,1.188,0.953,39.6805684,-75.7523242,4.435,0.03,0.05,0.88,-8957,11.668,0,0,7,160,32825,14126,-5,-1,0,1,0,0,0,0
17.7.2015,33:25.4,91,-3.072,0.32,171.545,-2.906,0.487,171.262,17,51,73,-0.051,-0.009,-0.973,0,-0.001,0.001,0.974,1.125,0.018,1.088,-0.978,39.6805684,-75.7523242,4.435,0.03,0.05,0.88,-8957,11.668,0,0,7,161,32825,14126,-5,-1,0,1,0,0,0,0
17.7.2015,33:25.5,91,-3.067,0.315,171.547,-3.038,0.309,171.262,2,2,21,-0.053,-0.005,-0.975,-0.001,0.001,-0.001,0.976,1.122,0.016,1.094,-0.869,39.6805683,-75.7523241,4.418,0.03,0.04,0.88,-8957,11.672,0,0,7,158,32825,14126,-5,-1,0,1,0,0,0,0
17.7.2015,33:25.6,91,-3.038,0.319,171.547,-3.067,0.475,171.262,-4,29,-47,-0.053,-0.008,-0.975,-0.002,-0.002,0,0.976,1.119,0.015,1.08,-0.116,39.6805683,-75.7523241,4.418,0.03,0.04,0.88,-8957,11.671,0,0,7,160,32825,14126,-5,-1,0,1,0,0,0,0
17.7.2015,33:25.6,91,-3.075,0.348,171.548,-3.279,0.304,172.002,20,-19,40,-0.057,-0.005,-0.975,-0.004,0.002,0.001,0.976,1.116,0.013,1.08,-0.134,39.6805683,-75.7523241,4.418,0.03,0.04,0.88,-8957,11.669,0,0,7,159,32826,14126,-5,-1,0,1,0,0,0,0
17.7.2015,33:25.7,91,-3.097,0.37,171.55,-3.004,0.521,171.262,11,22,-50,-0.052,-0.009,-0.976,0.002,-0.001,-0.001,0.978,1.113,0.012,1.09,0.084,39.6805683,-75.7523241,4.418,0.03,0.04,0.88,-8957,11.665,0,0,7,155,32828,14126,-5,-1,0,1,0,0,0,0
17.7.2015,33:25.8,91,-3.094,0.358,171.55,-2.923,0.258,171.262,4,8,26,-0.051,-0.004,-0.975,0.003,0.002,0,0.976,1.121,0.016,1.209,1.264,39.6805682,-75.752324,4.404,0,0.03,0.88,-8957,11.667,0,0,7,158,32828,14126,-5,-1,0,1,0,0,0,0
17.7.2015,33:25.8,91,-3.083,0.319,171.551,-3.038,0.246,171.262,-9,11,-13,-0.053,-0.004,-0.975,0.001,0.001,0.001,0.976,1.128,0.019,1.091,-1.176,39.6805682,-75.752324,4.404,0,0.03,0.88,-8957,11.667,0,0,7,157,32828,14126,-5,-1,0,1,0,0,0,0
17.7.2015,33:25.9,91,-3.109,0.343,171.55,-3.095,0.378,171.202,-37,-19,-22,-0.054,-0.007,-0.975,0.002,0,-0.001,0.976,1.125,0.016,1.096,0.048,39.6805682,-75.752324,4.404,0,0.03,0.88,-8957,11.668,0,0,7,160,32828,14126,-5,-1,0,1,0,0,0,0
17.7.2015,33:26.0,91,-3.123,0.331,171.551,-3.325,0.264,171.262,4,-28,-9,-0.058,-0.005,-0.98,-0.002,0.001,-0.005,0.982,1.122,0.016,1.092,-0.077,39.6805681,-75.752324,4.393,-0.01,0.03,0.88,-8957,11.665,0,0,7,156,32828,14126,-5,-1,0,1,0,0,0,0
17.7.2015,33:26.1,91,-3.147,0.298,171.552,-3.049,0.212,172.222,-1,9,46,-0.053,-0.004,-0.973,0.003,-0.001,0.003,0.974,1.12,0.015,1.096,-0.007,39.6805681,-75.752324,4.393,-0.01,0.03,0.88,-8957,11.666,0,0,7,155,32828,14126,-5,-1,0,1,0,0,0,0
17.7.2015,33:26.2,91,-3.172,0.26,171.555,-3.176,0.023,172.222,37,-31,-24,-0.055,0,-0.978,0.001,0.003,-0.003,0.98,1.133,0.021,1.204,1.087,39.6805679,-75.7523241,4.406,-0.02,0.02,0.88,-8957,11.673,0,0,7,140,32828,14128,-5,-1,0,1,0,0,0,0
17.7.2015,33:26.2,91,-3.153,0.241,171.556,-3.245,0.332,171.542,27,-18,18,-0.057,-0.006,-0.977,-0.001,-0.003,-0.001,0.979,1.133,0.021,1.106,-0.977,39.6805679,-75.7523241,4.406,-0.02,0.02,0.88,-8957,11.668,0,0,7,157,32829,14128,-5,-1,0,1,0,0,0,0
17.7.2015,33:26.3,91,-3.164,0.272,171.556,-3.038,0.504,172.222,12,-3,34,-0.053,-0.009,-0.978,0.003,-0.005,-0.001,0.979,1.131,0.02,1.097,-0.116,39.6805679,-75.7523241,4.406,-0.02,0.02,0.88,-8957,11.665,0,0,7,160,32829,14128,-5,-1,0,1,0,0,0,0
17.7.2015,33:26.4,91,-3.115,0.278,171.557,-3.095,0.464,171.542,-10,-35,-64,-0.054,-0.008,-0.974,0,-0.004,0.002,0.976,1.127,0.015,1.1,-0.003,39.6805678,-75.752324,4.387,0.02,0.01,0.88,-8957,11.669,0,0,7,156,32830,14128,-5,-1,0,1,0,0,0,0
17.7.2015,33:26.5,91,-3.125,0.31,171.553,-3.279,0.464,171.262,14,28,-66,-0.057,-0.008,-0.976,-0.002,-0.001,0,0.977,1.124,0.013,1.152,0.553,39.6805678,-75.752324,4.387,0.02,0.01,0.88,-8957,11.664,0,0,7,158,32830,14129,-5,-1,0,1,0,0,0,0
17.7.2015,33:26.6,91,-3.142,0.31,171.554,-3.176,0.304,171.262,-16,-1,57,-0.055,-0.005,-0.977,0,0.001,-0.001,0.978,1.133,0.017,1.196,0.984,39.6805678,-75.7523238,4.369,0.04,0.06,0.88,-8957,11.67,0,0,7,158,32830,14129,-5,-1,0,1,0,0,0,0
17.7.2015,33:26.6,91,-3.145,0.297,171.558,-2.958,0.223,171.542,-29,-2,-21,-0.052,-0.004,-0.973,0.003,0,0.003,0.974,1.136,0.018,1.093,-1.021,39.6805678,-75.7523238,4.369,0.04,0.06,0.88,-8957,11.669,0,0,7,159,32830,14129,-5,-1,0,1,0,0,0,0
17.7.2015,33:26.7,91,-3.133,0.293,171.56,-3.004,0.332,171.542,15,-7,-32,-0.052,-0.006,-0.974,0.002,-0.002,0,0.976,1.132,0.015,1.096,-0.997,39.6805678,-75.7523238,4.369,0.04,0.06,0.88,-8957,11.671,0,0,7,156,32830,14129,-5,-1,0,1,0,0,0,0
17.7.2015,33:26.8,91,-3.131,0.324,171.558,-3.233,0.538,172.002,-17,28,21,-0.056,-0.009,-0.974,-0.002,-0.003,0.001,0.975,1.129,0.013,1.11,0.184,39.6805678,-75.7523235,4.333,0.11,0.04,0.88,-8957,11.668,0,0,7,159,32832,14129,-5,-1,0,1,0,0,0,0
17.7.2015,33:26.8,91,-3.131,0.324,171.558,-3.233,0.538,172.002,-17,28,21,-0.056,-0.009,-0.974,-0.002,-0.003,0.001,0.975,1.129,0.013,1.11,0.184,39.6805678,-75.7523235,4.333,0.11,0.04,0.88,-8957,11.664,0,0,7,158,32832,14129,-5,-1,0,1,0,0,0,0
17.7.2015,33:26.9,91,-3.121,0.337,171.559,-3.118,0.332,171.262,1,-22,-71,-0.054,-0.006,-0.977,0,0.001,-0.002,0.978,1.128,0.012,1.203,0.94,39.6805678,-75.7523235,4.333,0.11,0.04,0.88,-8957,11.665,0,0,7,130,32832,14129,-5,-1,0,1,0,0,0,0
17.7.2015,33:27.0,91,-3.146,0.323,171.557,-3.182,0.075,170.472,-21,5,8,-0.056,-0.001,-0.976,0,0.004,-0.001,0.977,1.138,0.017,1.201,0.945,39.6805679,-75.7523234,4.318,0.03,0.12,0.89,-8957,11.665,0,0,7,158,32832,14129,-5,-1,0,1,0,0,0,0
17.7.2015,33:27.0,91,-3.139,0.289,171.56,-3.118,0.012,171.542,-16,-71,-15,-0.054,0,-0.973,0,0.002,0.002,0.975,1.139,0.018,1.106,-1.057,39.6805679,-75.7523234,4.318,0.03,0.12,0.89,-8957,11.669,0,0,7,156,32833,14129,-5,-1,0,1,0,0,0,0
17.7.2015,33:27.1,91,-3.139,0.289,171.56,-3.118,0.012,171.542,-16,-71,-15,-0.054,0,-0.973,0,0.002,0.002,0.975,1.139,0.018,1.106,-1.057,39.6805679,-75.7523234,4.318,0.03,0.12,0.89,-8957,11.665,0,0,7,157,32833,14129,-5,-1,0,1,0,0,0,0
17.7.2015,33:27.2,91,-3.111,0.305,171.562,-2.958,0.447,171.262,-3,36,24,-0.052,-0.008,-0.976,0.002,-0.001,-0.001,0.977,1.13,0.011,1.11,0.151,39.6805678,-75.7523232,4.287,0.14,0.07,0.9,-8957,11.67,0,0,7,154,32833,14129,-5,-1,0,1,0,0,0,0
17.7.2015,33:27.3,91,-3.101,0.328,171.569,-3.095,0.601,171.262,-9,-6,57,-0.054,-0.011,-0.976,0,-0.004,-0.001,0.977,1.129,0.01,1.107,0.02,39.6805678,-75.7523232,4.287,0.14,0.07,0.9,-8957,11.665,0,0,7,158,32834,14129,-5,-1,0,1,0,0,0,0
17.7.2015,33:27.3,91,-3.076,0.334,171.569,-3.216,0.132,171.262,-31,7,18,-0.056,-0.002,-0.978,-0.003,0.004,-0.003,0.979,1.138,0.014,1.216,1.042,39.6805682,-75.7523232,4.259,0.05,0.26,0.91,-8957,11.666,0,0,7,158,32834,14128,-5,-1,0,1,0,0,0,0
17.7.2015,33:27.4,91,-3.072,0.34,171.555,-3.193,0.395,171.262,-39,-15,-13,-0.056,-0.007,-0.979,-0.003,0,-0.003,0.98,1.143,0.018,1.104,-1.12,39.6805682,-75.7523232,4.259,0.05,0.26,0.91,-8957,11.668,0,0,7,155,32834,14128,-5,-1,0,1,0,0,0,0
17.7.2015,33:27.5,91,-3.09,0.323,171.543,-2.969,0.201,171.262,13,3,65,-0.052,-0.004,-0.975,0.002,0.002,0.001,0.976,1.138,0.014,1.097,-1.193,39.6805682,-75.7523232,4.259,0.05,0.26,0.91,-8957,11.667,0,0,7,158,32834,14128,-5,-1,0,1,0,0,0,0
17.7.2015,33:27.5,91,-3.098,0.291,171.533,-3.055,0.229,172.282,-54,8,-45,-0.053,-0.004,-0.974,0.001,-0.001,0.001,0.975,1.134,0.011,1.111,0.166,39.6805683,-75.7523233,4.184,-0.04,0.02,0.92,-8957,11.665,0,0,7,156,32835,14128,-5,-1,0,1,0,0,0,0
17.7.2015,33:27.6,91,-3.102,0.251,171.533,-3.015,-0.218,171.542,19,-17,4,-0.053,0.004,-0.971,0.003,0.006,0.004,0.972,1.131,0.009,1.107,0.062,39.6805683,-75.7523233,4.184,-0.04,0.02,0.92,-8957,11.665,0,0,7,157,32835,14128,-5,-1,0,1,0,0,0,0
17.7.2015,33:27.7,91,-3.118,0.309,171.51,-2.539,1.885,171.262,-131,209,-76,-0.044,-0.033,-0.973,0.01,-0.028,0.002,0.974,1.129,0.007,1.109,-0.002,39.6805683,-75.7523233,4.184,-0.04,0.02,0.92,-8957,11.665,0,0,7,159,32835,14128,-5,-1,0,1,0,0,0,0
17.7.2015,33:27.7,91,-3.066,0.082,171.524,-6.598,-0.625,172.682,360,208,7,-0.115,0.011,-0.941,-0.064,0.01,0.03,0.948,1.145,0.019,1.244,1.358,39.6805683,-75.7523232,4.146,0.04,-0.02,0.92,-8957,11.667,0,0,7,156,32835,14132,-5,-1,0,1,0,0,0,0
17.7.2015,33:27.8,91,-2.862,0.126,171.522,-1.261,0.086,171.832,96,-203,18,-0.022,-0.002,-0.996,0.028,0,-0.019,0.996,1.148,0.02,1.108,-1.352,39.6805683,-75.7523232,4.146,0.04,-0.02,0.92,-8957,11.663,0,0,7,156,32836,14132,-5,-1,0,1,0,0,0,0
17.7.2015,33:27.9,91,-2.935,0.142,171.527,-2.247,1.375,171.772,-87,64,-38,-0.039,-0.024,-0.975,0.011,-0.023,0,0.976,1.145,0.01,1.122,-0.495,39.6805683,-75.7523232,4.146,0.04,-0.02,0.92,-8957,11.667,0,0,7,157,32836,14132,-5,-1,0,1,0,0,0,0
17.7.2015,33:28.0,91,-2.83,0.128,171.527,-3.693,-2.447,172.512,38,-47,-18,-0.064,0.043,-0.953,-0.016,0.043,0.021,0.956,1.143,0.012,1.119,-0.033,39.6805682,-75.7523229,4.106,0.12,-0.01,0.93,-8957,11.668,0,0,7,156,32836,14132,-5,-1,0,1,0,0,0,0
17.7.2015,33:28.0,91,-2.97,0.278,171.516,0.075,1.793,171.492,-431,127,39,0.001,-0.031,-0.993,0.052,-0.028,-0.016,0.994,1.142,0.01,1.126,0.001,39.6805682,-75.7523229,4.106,0.12,-0.01,0.93,-8957,11.668,0,0,7,156,32836,14132,-5,-1,0,1,0,0,0,0
17.7.2015,33:28.1,91,-3.138,0.32,171.481,-6.24,2.206,171.262,58,159,98,-0.109,-0.038,-0.964,-0.055,-0.033,0.007,0.971,1.144,0.012,1.215,0.904,39.6805682,-75.7523229,4.106,0.12,-0.01,0.93,-8957,11.667,0,0,7,141,32836,14131,-5,-1,0,1,0,0,0,0
17.7.2015,33:28.1,91,-3.033,0.083,171.52,-1.794,-2.516,172.682,-131,-172,196,-0.031,0.044,-0.961,0.021,0.044,0.016,0.962,1.153,0.024,1.211,0.875,39.6805683,-75.752323,4.094,-0.01,0.07,0.94,-8957,11.669,0,0,7,157,32836,14131,-5,-1,0,1,0,0,0,0
17.7.2015,33:28.2,91,-3.004,0.179,171.552,-5.043,3.738,171.772,243,58,-77,-0.088,-0.065,-0.987,-0.034,-0.064,-0.014,0.993,1.152,0.017,1.118,-0.931,39.6805683,-75.752323,4.094,-0.01,0.07,0.94,-8957,11.663,0,0,7,158,32838,14131,-5,-1,0,1,0,0,0,0
17.7.2015,33:28.3,91,-2.863,0.152,171.556,-2.579,-1.662,171.772,167,-66,110,-0.045,0.029,-0.976,0.004,0.03,0.001,0.977,1.149,0.021,1.121,0.038,39.6805683,-75.752323,4.094,-0.01,0.07,0.94,-8957,11.667,0,0,7,156,32838,14131,-5,-1,0,1,0,0,0,0
17.7.2015,33:28.3,91,-2.843,0.198,171.579,-2.539,1.701,171.772,-17,-25,-28,-0.044,-0.03,-0.993,0.004,-0.028,-0.017,0.994,1.146,0.014,1.124,0.058,39.6805683,-75.7523229,4.072,0.02,-0.04,0.96,-8957,11.667,0,0,7,157,32838,14131,-5,-1,0,1,0,0,0,0
17.7.2015,33:28.4,91,-2.887,0.195,171.579,-2.149,-0.235,171.772,-159,27,24,-0.037,0.004,-0.966,0.01,0.005,0.01,0.967,1.145,0.013,1.122,0.018,39.6805683,-75.7523229,4.072,0.02,-0.04,0.96,-8957,11.664,0,0,7,158,32839,14131,-5,-1,0,1,0,0,0,0
17.7.2015,33:28.5,91,-2.919,0.191,171.581,-4.807,0.51,171.772,193,-73,-42,-0.084,-0.009,-0.972,-0.034,-0.007,0.002,0.976,1.151,0.02,1.266,1.442,39.6805683,-75.7523229,4.072,0.02,-0.04,0.96,-8957,11.666,0,0,7,155,32839,14132,-5,-1,0,1,0,0,0,0
17.7.2015,33:28.6,91,-2.905,0.126,171.567,-1.009,-0.114,171.772,-138,-41,-37,-0.018,0.002,-0.983,0.033,0.003,-0.006,0.983,1.166,0.026,1.196,0.012,39.6805683,-75.7523229,4.072,0.02,-0.04,0.96,-8957,11.665,0,0,7,159,32839,14132,-5,-1,0,1,0,0,0,0
17.7.2015,33:28.6,91,-2.992,0.211,171.573,-4.474,1.581,170.752,75,37,-27,-0.078,-0.028,-0.977,-0.028,-0.023,-0.004,0.981,1.164,0.022,1.127,-1.396,39.6805683,-75.7523229,4.072,0.02,-0.04,0.96,-8957,11.665,0,0,7,156,32840,14132,-5,-1,0,1,0,0,0,0
17.7.2015,33:28.7,91,-2.874,0.177,171.582,-2,-0.625,171.772,8,51,-24,-0.035,0.011,-0.977,0.014,0.012,-0.001,0.977,1.16,0.019,1.129,0.039,39.6805683,-75.7523225,4.042,0.01,-0.05,0.98,-8957,11.667,0,0,7,155,32840,14132,-5,-1,0,1,0,0,0,0
17.7.2015,33:28.8,91,-2.842,0.2,171.577,-3.067,1.483,171.772,52,39,-15,-0.053,-0.026,-0.971,-0.006,-0.024,0.005,0.973,1.158,0.02,1.134,0.103,39.6805683,-75.7523225,4.042,0.01,-0.05,0.98,-8957,11.667,0,0,7,158,32840,14132,-5,-1,0,1,0,0,0,0
17.7.2015,33:56.7,0,-2.842,0.2,171.577,-3.067,1.483,171.772,52,39,-15,-0.053,-0.026,-0.971,-0.006,-0.024,0.005,0.973,1.158,0.02,1.134,0.103,39.6805683,-75.7523225,4.042,0.01,-0.05,0.98,-8957,11.679,0,0,129,156,32841,14132,-5,-1,0,1,0,0,0,0
17.7.2015,33:56.8,0,-2.842,0.2,171.577,-3.067,1.483,171.772,52,39,-15,-0.053,-0.026,-0.971,-0.006,-0.024,0.005,0.973,1.158,0.02,1.134,0.103,39.6805683,-75.7523225,4.042,0.01,-0.05,0.98,-8957,11.679,0,0,129,156,32841,14132,-5,-1,0,1,0,0,0,0
17.7.2015,33:56.8,0,64.83,90,94.026,59.232,90,102.386,13,-39,-39,0.859,-0.966,-1.405,-0.506,1.404,-0.186,1.904,-0.005,0.062,-0.008,-0.083,39.6805683,-75.7523225,4.042,0.01,-0.05,0.98,-8957,11.679,0,0,129,4,32856,14103,-5,-1,0,1,0,0,0,0
17.7.2015,33:57.0,0,-3.381,0.369,179.938,-3.325,0.201,181.156,4,-24,1,-0.058,-0.004,-0.977,0,0.001,0.023,0.979,-0.003,0.061,-0.037,-0.146,0,0,0,0,0,0,0,11.678,0,0,131,7,32856,14103,-3,0,57,34,0,0,0,0
17.7.2015,33:57.1,0,-3.413,0.402,178.549,-3.698,0.384,181.726,-19,-8,-23,-0.065,-0.007,-0.981,-0.003,0.001,0.016,0.983,-0.006,0.029,-0.029,0.123,0,0,0,0,0,0,0,11.679,0,0,131,2,32858,14103,-5,0,0,1,0,0,0,0
17.7.2015,33:57.2,0,-3.431,0.394,177.693,-3.566,0.309,182.456,17,31,3,-0.062,-0.005,-0.977,-0.001,0.001,0.018,0.979,-0.001,0.012,0.074,1.062,0,0,0,0,0,0,0,11.677,0,0,131,2,32858,14101,-5,0,0,1,0,0,0,0
17.7.2015,33:57.2,0,-3.43,0.372,177.048,-3.405,-0.034,183.926,4,-27,32,-0.059,0.001,-0.98,0.001,0.007,0.014,0.982,0.007,0.007,0.052,0.625,0,0,0,0,0,0,0,11.679,0,0,131,7,32858,14101,-5,0,0,1,0,0,0,0
17.7.2015,33:57.3,0,-3.438,0.375,176.399,-3.566,0.556,183.926,-41,20,4,-0.062,-0.01,-0.978,-0.002,-0.003,0.014,0.98,0.002,-0.004,-0.042,-1.168,0,0,0,0,0,0,0,11.679,0,0,131,3,32858,14101,-5,0,0,1,0,0,0,0
17.7.2015,33:57.5,0,-3.435,0.37,174.981,-3.411,0.412,184.606,-8,30,12,-0.059,-0.007,-0.979,0.001,-0.001,0.011,0.981,-0.008,-0.028,-0.045,-0.112,0,0,0,0,0,0,0,11.679,0,0,131,4,32859,14101,-6,0,0,1,0,0,0,0
17.7.2015,33:57.5,0,-3.41,0.359,174.152,-3.52,0.246,186.076,19,-20,4,-0.061,-0.004,-0.98,-0.002,0.002,0.009,0.981,-0.016,-0.039,0.027,0.674,0,0,0,0,0,0,0,11.682,0,0,131,5,32859,14104,-6,0,0,1,0,0,0,0
17.7.2015,33:58.1,0,-3.444,0.393,169.527,-3.279,0.51,185.396,51,8,-40,-0.057,-0.009,-0.982,0.003,-0.002,-0.001,0.984,-0.021,-0.05,-0.034,-0.904,0,0,0,0,0,0,0,11.676,0,0,131,3,32863,14102,-5,0,0,1,0,0,0,0
17.7.2015,33:58.2,0,-3.471,0.451,168.94,-3.474,0.493,186.016,25,8,26,-0.061,-0.009,-0.981,0.001,0.001,0,0.982,-0.029,-0.052,-0.04,-0.03,0,0,0,0,0,0,0,11.679,0,0,131,3,32863,14102,-5,0,0,1,0,0,0,0
17.7.2015,33:58.3,0,-3.478,0.45,168.653,-3.52,0.527,185.966,-7,5,5,-0.061,-0.009,-0.981,0,-0.001,0,0.983,-0.033,-0.051,-0.04,-0.025,0,0,0,0,0,0,0,11.675,0,0,131,6,32863,14102,-5,0,0,1,0,0,0,0
17.7.2015,33:58.3,0,-3.502,0.481,168.399,-3.52,0.642,186.016,16,-28,4,-0.061,-0.011,-0.981,0.002,-0.002,0,0.982,-0.036,-0.052,0.047,0.87,0,0,0,0,0,0,0,11.677,0,0,131,6,32863,14102,-5,0,0,1,0,0,0,0
17.7.2015,33:58.8,0,-3.49,0.53,167.87,-3.44,0.693,184.996,-28,-72,17,-0.06,-0.012,-0.983,0.001,-0.001,-0.002,0.985,-0.02,-0.039,-0.039,-1.611,0,0,0,0,0,0,0,11.677,0,0,131,3,32863,14103,-5,0,0,1,0,0,0,0
17.7.2015,33:58.8,0,-3.476,0.541,167.701,-3.262,0.659,185.796,16,-5,-12,-0.057,-0.011,-0.978,0.003,-0.001,0.003,0.979,-0.026,-0.041,-0.043,-0.018,0,0,0,0,0,0,0,11.679,0,0,131,7,32864,14103,-5,0,0,1,0,0,0,0
17.7.2015,33:58.8,0,-3.46,0.514,167.324,-3.423,0.521,186.416,-34,15,-26,-0.06,-0.009,-0.978,0.001,0,0.003,0.979,-0.024,-0.035,-0.043,-1.125,0,0,0,0,0,0,0,11.678,0,0,131,6,32864,14103,-5,0,0,1,0,0,0,0
17.7.2015,33:59.0,0,-3.485,0.52,167.194,-3.405,0.384,185.736,-18,26,14,-0.059,-0.007,-0.976,0.001,0.002,0.004,0.978,-0.033,-0.038,-0.04,0.062,0,0,0,0,0,0,0,11.679,0,0,131,2,32864,14103,-5,0,0,1,0,0,0,0
17.7.2015,33:59.1,0,-3.484,0.526,167.128,-3.503,0.475,185.736,-28,14,43,-0.061,-0.008,-0.979,0,0.001,0,0.98,-0.036,-0.04,-0.049,-0.054,0,0,0,0,0,0,0,11.677,0,0,131,1,32865,14103,-5,0,0,1,0,0,0,0
17.7.2015,33:59.2,0,-3.5,0.531,167.034,-3.52,0.556,185.736,24,-39,44,-0.061,-0.01,-0.978,0,0,0,0.979,-0.035,-0.038,0.055,1.049,0,0,0,0,0,0,0,11.677,0,0,131,2,32865,14104,-5,0,0,1,0,0,0,0
17.7.2015,33:59.2,0,-3.469,0.553,167.098,-3.423,0.504,185.736,-63,-23,0,-0.06,-0.009,-0.98,0.001,0.001,-0.002,0.982,-0.028,-0.033,-0.03,-0.638,0,0,0,0,0,0,0,11.677,0,0,131,8,32865,14104,-5,0,0,1,0,0,0,0
17.7.2015,33:59.3,0,-3.471,0.523,167.165,-3.572,0.458,184.996,-23,2,15,-0.062,-0.008,-0.978,-0.002,0.001,-0.001,0.98,-0.032,-0.034,-0.042,-0.917,0,0,0,0,0,0,0,11.68,0,0,131,2,32865,14104,-5,0,0,1,0,0,0,0
17.7.2015,33:59.4,0,-3.471,0.523,167.165,-3.572,0.458,184.996,-23,2,15,-0.062,-0.008,-0.978,-0.002,0.001,-0.001,0.98,-0.032,-0.034,-0.042,-0.917,0,0,0,0,0,0,0,11.679,0,0,131,2,32865,14104,-5,0,0,1,0,0,0,0
17.7.2015,33:59.4,0,-3.523,0.486,167.314,-3.647,0.401,185.286,1,-22,-13,-0.064,-0.007,-0.979,-0.001,0,0,0.98,-0.038,-0.031,-0.034,0.103,39.6805486,-75.7522869,8.794,0,0.27,13.68,0,11.679,0,0,131,5,32865,14104,-5,0,0,1,0,0,0,0
17.7.2015,33:59.5,0,-3.56,0.451,167.375,-3.773,0.275,186.696,-17,27,35,-0.066,-0.005,-0.98,-0.002,0.002,0,0.982,-0.039,-0.03,0.068,1.027,39.6805486,-75.7522869,8.794,0,0.27,13.68,0,11.679,0,0,131,1,32866,14103,-5,0,0,1,0,0,0,0
17.7.2015,33:59.6,0,-3.56,0.451,167.375,-3.773,0.275,186.696,-17,27,35,-0.066,-0.005,-0.98,-0.002,0.002,0,0.982,-0.039,-0.03,0.068,1.027,39.6805486,-75.7522869,8.794,0,0.27,13.68,0,11.677,0,0,3,3,32866,14103,-5,0,0,1,0,0,0,0
17.7.2015,33:59.7,0,-3.524,0.502,167.524,-3.549,0.504,185.736,23,-3,4,-0.062,-0.009,-0.981,0,0.002,0.001,0.983,-0.018,-0.015,-0.045,-1.614,39.6805486,-75.7522869,8.794,0,0.27,13.68,0,11.676,0,0,3,3,32866,14103,-5,0,0,1,0,0,0,0
17.7.2015,33:59.7,0,-3.514,0.495,167.589,-3.44,0.573,185.286,-5,-10,46,-0.06,-0.01,-0.98,0.001,-0.002,0,0.982,-0.022,-0.017,-0.038,0.05,39.6805486,-75.7522869,8.794,0,0.27,13.68,0,11.679,0,0,3,6,32866,14103,-5,0,0,1,0,0,0,0
17.7.2015,33:59.8,0,-3.502,0.528,167.65,-3.538,0.619,171.602,16,-13,-36,-0.062,-0.011,-0.979,0,0,0,0.981,-0.024,-0.019,-0.036,0.045,39.6805487,-75.7522947,9.559,0.04,0.11,9.51,-8957,11.679,0,0,3,2,32866,14103,-5,0,0,1,0,0,0,0
17.7.2015,33:59.9,0,-3.502,0.528,167.65,-3.538,0.619,171.602,16,-13,-36,-0.062,-0.011,-0.979,0,0,0,0.981,-0.024,-0.019,-0.036,0.045,39.6805487,-75.7522947,9.559,0.04,0.11,9.51,-8957,11.679,0,0,3,5,32866,14103,-5,0,0,1,0,0,0,0
17.7.2015,33:59.9,0,-3.467,0.543,167.787,-3.423,0.246,170.922,6,-6,-39,-0.06,-0.004,-0.982,0.001,0.006,-0.002,0.984,-0.027,-0.017,0.074,1.101,39.6805473,-75.752295,9.878,0.02,0.09,8.48,-8957,11.679,0,0,7,-26,32866,14103,-5,0,0,1,0,0,0,0
17.7.2015,34:00.0,0,-3.464,0.535,167.876,-3.652,0.613,170.922,-43,-21,4,-0.064,-0.011,-0.98,-0.003,-0.001,0.001,0.982,-0.012,-0.008,0.012,-0.191,39.6805473,-75.752295,9.878,0.02,0.09,8.48,-8957,11.679,0,0,7,6,32866,14103,-5,0,0,1,0,0,0,0
17.7.2015,34:00.2,0,-3.554,0.542,168.125,-3.583,0.504,170.862,73,-13,5,-0.062,-0.009,-0.98,0,0,0.001,0.982,-0.026,-0.013,-0.046,0.055,39.6805477,-75.7522984,9.876,0.02,0.07,7.76,-8957,11.677,0,0,7,5,32867,14103,-5,0,0,1,0,0,0,0
17.7.2015,34:00.3,0,-3.534,0.523,168.186,-3.423,0.447,171.602,-20,32,-4,-0.06,-0.008,-0.983,0.002,0.001,-0.002,0.984,-0.025,-0.012,0.064,1.166,39.6805486,-75.7523016,9.953,0.04,0.04,7.17,-8957,11.681,0,0,7,-13,32867,14104,-5,0,0,1,0,0,0,0
17.7.2015,34:00.4,0,-3.534,0.523,168.186,-3.423,0.447,171.602,-20,32,-4,-0.06,-0.008,-0.983,0.002,0.001,-0.002,0.984,-0.025,-0.012,0.064,1.166,39.6805486,-75.7523016,9.953,0.04,0.04,7.17,-8957,11.676,0,0,7,4,32868,14104,-5,0,0,1,0,0,0,0
17.7.2015,34:00.5,0,-3.522,0.495,168.393,-3.469,0.458,171.152,-18,-49,29,-0.06,-0.008,-0.981,0.001,-0.001,-0.001,0.983,-0.022,-0.009,-0.042,0.067,39.6805459,-75.7523027,9.593,0.02,0.05,6.58,-8957,11.677,0,0,7,1,32868,14104,-5,0,0,1,0,0,0,0
17.7.2015,34:00.6,0,-3.548,0.533,168.479,-3.423,0.584,170.862,2,-25,-2,-0.06,-0.01,-0.982,0.003,0,-0.002,0.983,-0.026,-0.011,-0.043,0.004,39.6805459,-75.7523027,9.593,0.02,0.05,6.58,-8957,11.681,0,0,7,5,32868,14104,-5,0,0,1,0,0,0,0
