Date, Time, System Timestamp,Angle Pitch, Angle Roll, Angle Yaw, Pitch Reference, Roll Reference, Yaw Reference, Ang.vel. Pitch, Ang.vel. Roll, Ang.vel. Yaw, Total acc. X, Total acc. Y, Total acc. Z, Trans. acc. X, Trans. acc. Y, Trans. acc. Z, Total acc., Height, dHeight, Height reference, dHeight reference,Latitude, Longitude, Height, Speed x, Speed y, Horizontal accuracy, GPS Status,Battery 1, Battery 2, Status, FlightMode,Pressure, Temp. Gyro, Temp. ADC,Pitch, Roll, Yaw, Thrust,debug1,debug2,debug3,debug4
17.7.2015,28:03.8,0,-1.32,0.235,178.993,-1.215,0.475,178.982,-38,-35,6,-0.021,-0.008,-0.966,-0.007,-0.001,-0.002,0.966,1.53,0,1.492,-0.391,39.680576,-75.7523091,2.67,0,0.01,0.64,-8957,11.864,0,0,7,7,32428,13978,4,-5,0,1,0,0,0,0
17.7.2015,28:03.8,0,-1.29,0.265,178.992,-0.992,0.264,179.032,12,11,37,-0.017,-0.005,-0.965,-0.003,0.003,0,0.965,1.527,0,1.498,0.057,39.680576,-75.7523091,2.67,0,0.01,0.64,-8957,11.866,0,0,7,7,32428,13978,4,-5,0,1,0,0,0,0
17.7.2015,28:04.1,0,-1.227,0.301,178.992,-1.083,0.441,178.762,20,-11,-13,-0.019,-0.008,-0.963,-0.001,0.001,0.003,0.964,1.536,0.005,1.644,1.334,39.680576,-75.7523091,2.67,0,0.01,0.64,-8957,11.866,0,0,7,7,32428,13978,4,-5,0,1,0,0,0,0
17.7.2015,28:04.3,0,-1.246,0.284,178.996,-1.41,0.556,178.872,62,23,44,-0.025,-0.01,-0.965,-0.004,-0.005,-0.001,0.965,1.534,0.002,1.492,-0.093,39.680576,-75.7523091,2.67,0,0.01,0.64,-8957,11.868,0,0,7,7,32428,13978,4,-5,0,1,0,0,0,0
17.7.2015,28:04.6,0,-1.281,0.345,178.995,-1.209,0.412,178.762,-34,44,-7,-0.021,-0.007,-0.966,0.001,0,-0.001,0.966,1.527,0,1.501,0.001,39.6805761,-75.7523093,2.598,0.01,0.01,0.64,-8957,11.866,0,0,7,7,32428,13978,4,-5,0,1,0,0,0,0
17.7.2015,28:04.7,0,-1.18,0.37,178.993,-1.032,0.378,178.652,27,0,-35,-0.018,-0.007,-0.965,0,0,-0.001,0.966,1.527,0,1.507,0.064,39.6805761,-75.7523093,2.598,0.01,0.01,0.64,-8957,11.866,0,0,7,7,32428,13978,4,-5,0,1,0,0,0,0
17.7.2015,28:04.7,0,-1.158,0.349,178.989,-1.129,0.246,178.812,21,33,11,-0.02,-0.004,-0.963,-0.001,0.002,0.001,0.963,1.526,-0.001,1.509,0.058,39.6805761,-75.7523094,2.557,0,0,0.64,-8957,11.863,0,0,7,7,32428,13978,4,-5,0,1,0,0,0,0
17.7.2015,28:04.8,0,-1.158,0.349,178.989,-1.129,0.246,178.812,21,33,11,-0.02,-0.004,-0.963,-0.001,0.002,0.001,0.963,1.526,-0.001,1.509,0.058,39.6805761,-75.7523094,2.557,0,0,0.64,-8957,11.866,0,0,7,7,32428,13978,4,-5,0,1,0,0,0,0
17.7.2015,28:04.8,0,-1.103,0.38,178.993,-0.974,0.401,178.652,29,9,33,-0.017,-0.007,-0.964,0,0,-0.001,0.964,1.532,0.001,1.614,1.06,39.6805761,-75.7523094,2.557,0,0,0.64,-8957,11.863,0,0,7,7,32428,13978,4,-5,0,1,0,0,0,0
17.7.2015,28:04.8,0,-1.103,0.38,178.993,-0.974,0.401,178.652,29,9,33,-0.017,-0.007,-0.964,0,0,-0.001,0.964,1.532,0.001,1.614,1.06,39.6805761,-75.7523094,2.557,0,0,0.64,-8957,11.865,0,0,7,7,32428,13978,4,-5,0,1,0,0,0,0
17.7.2015,28:04.9,0,-1.103,0.38,178.993,-0.974,0.401,178.652,29,9,33,-0.017,-0.007,-0.964,0,0,-0.001,0.964,1.532,0.001,1.614,1.06,39.6805761,-75.7523094,2.557,0,0,0.64,-8957,11.866,0,0,7,7,32428,13978,4,-5,0,1,0,0,0,0
17.7.2015,28:05.0,0,-1.041,0.328,178.984,-0.229,0.332,179.642,-29,-81,-4,-0.004,-0.006,-0.96,0.009,-0.001,0.002,0.96,1.535,0.001,1.509,-0.985,39.6805761,-75.7523095,2.532,0,0,0.64,-8957,11.867,0,0,7,7,32428,13978,4,-5,0,1,0,0,0,0
17.7.2015,28:05.0,0,-1.002,0.335,178.983,0.092,0.212,178.872,24,-1,31,0.002,-0.004,-0.957,0.012,0.002,0.004,0.957,1.53,-0.002,1.503,-0.073,39.6805761,-75.7523095,2.532,0,0,0.64,-8957,11.866,0,0,7,7,32428,13978,4,-5,0,1,0,0,0,0
17.7.2015,28:05.1,0,-0.979,0.314,178.983,0.103,0.201,178.762,-28,-52,-16,0.002,-0.004,-0.957,0.01,0.001,0.003,0.957,1.528,-0.004,1.505,-0.061,39.6805761,-75.7523096,2.517,0.01,0.01,0.64,-8957,11.862,0,0,7,7,32428,13978,4,-5,0,1,0,0,0,0
17.7.2015,28:05.1,0,-0.958,0.294,178.982,0.143,0.258,179.032,-16,32,-15,0.003,-0.004,-0.959,0.009,-0.002,0,0.959,1.526,-0.006,1.516,0.155,39.6805761,-75.7523096,2.517,0.01,0.01,0.64,-8957,11.866,0,0,7,7,32428,13978,4,-5,0,1,0,0,0,0
17.7.2015,28:05.2,0,-0.934,0.276,178.981,0.029,-0.132,179.032,-31,-9,33,0.001,0.002,-0.96,0.007,0.004,0,0.96,1.533,-0.002,1.666,1.6,39.6805761,-75.7523096,2.517,0.01,0.01,0.64,-8957,11.866,0,0,7,7,32428,13978,4,-5,0,1,0,0,0,0
17.7.2015,28:05.3,0,-0.912,0.265,178.981,0.155,0.355,179.862,41,11,-17,0.003,-0.006,-0.959,0.008,-0.004,0.001,0.959,1.544,0.004,1.66,1.453,39.6805761,-75.7523096,2.517,0.01,0.01,0.64,-8957,11.866,0,0,7,7,32428,13978,4,-5,0,1,0,0,0,0
17.7.2015,28:05.4,0,-0.87,0.259,178.979,-0.057,0.292,179.862,5,16,28,-0.001,-0.005,-0.955,0.001,-0.001,0.004,0.955,1.544,0.002,1.506,-1.547,39.6805761,-75.7523096,2.497,0.01,0.01,0.64,-8957,11.865,0,0,7,7,32428,13978,4,-5,0,1,0,0,0,0
17.7.2015,28:05.4,0,-0.831,0.269,178.98,0.109,0.521,179.252,-11,-34,-17,0.002,-0.009,-0.958,0.003,-0.004,0.001,0.958,1.538,0,1.508,0.03,39.6805761,-75.7523096,2.497,0.01,0.01,0.64,-8957,11.863,0,0,7,7,32428,13978,4,-5,0,1,0,0,0,0
17.7.2015,28:05.5,0,-0.831,0.269,178.98,0.109,0.521,179.252,-11,-34,-17,0.002,-0.009,-0.958,0.003,-0.004,0.001,0.958,1.538,0,1.508,0.03,39.6805761,-75.7523096,2.497,0.01,0.01,0.64,-8957,11.864,0,0,7,7,32428,13978,4,-5,0,1,0,0,0,0
17.7.2015,28:05.5,0,-0.788,0.248,178.981,0.235,0.132,180.242,-42,-24,42,0.004,-0.002,-0.958,0.001,0.002,0,0.958,1.534,-0.003,1.52,0.113,39.680576,-75.7523097,2.484,0,0.01,0.64,-8957,11.866,0,0,7,7,32428,13978,4,-5,0,1,0,0,0,0
17.7.2015,28:05.6,0,-0.788,0.248,178.981,0.235,0.132,180.242,-42,-24,42,0.004,-0.002,-0.958,0.001,0.002,0,0.958,1.534,-0.003,1.52,0.113,39.680576,-75.7523097,2.484,0,0.01,0.64,-8957,11.866,0,0,7,7,32428,13978,4,-5,0,1,0,0,0,0
17.7.2015,28:05.7,0,-0.788,0.248,178.981,0.235,0.132,180.242,-42,-24,42,0.004,-0.002,-0.958,0.001,0.002,0,0.958,1.534,-0.003,1.52,0.113,39.680576,-75.7523097,2.484,0,0.01,0.64,-8957,11.865,0,0,7,7,32428,13978,4,-5,0,1,0,0,0,0
17.7.2015,28:05.7,0,-0.788,0.248,178.981,0.235,0.132,180.242,-42,-24,42,0.004,-0.002,-0.958,0.001,0.002,0,0.958,1.534,-0.003,1.52,0.113,39.680576,-75.7523098,2.464,-0.02,0.03,0.64,-8957,11.865,0,0,7,7,32428,13978,4,-5,0,1,0,0,0,0
17.7.2015,28:05.8,0,-0.674,0.186,179.104,0.16,0.338,179.472,6,0,-27,0.003,-0.006,-0.962,0,-0.004,-0.003,0.962,1.545,0.006,1.507,-0.144,39.680576,-75.7523098,2.464,-0.02,0.03,0.64,-8957,11.865,0,0,7,7,32428,13978,4,-5,0,1,0,0,0,0
17.7.2015,28:05.8,0,-0.654,0.209,179.115,-0.086,0.264,178.542,-16,-12,26,-0.002,-0.005,-0.959,-0.004,0,0.001,0.958,1.542,0.005,1.505,0.005,39.680576,-75.7523098,2.464,-0.02,0.03,0.64,-8957,11.865,0,0,7,7,32428,13978,4,-5,0,1,0,0,0,0
17.7.2015,28:05.9,0,-0.633,0.227,179.115,-0.298,0.378,179.472,33,48,-10,-0.005,-0.007,-0.963,-0.007,-0.002,-0.003,0.963,1.539,0.004,1.507,0.02,39.680576,-75.7523098,2.464,-0.02,0.03,0.64,-8957,11.866,0,0,7,7,32428,13978,4,-5,0,1,0,0,0,0
17.7.2015,28:05.9,0,-0.611,0.248,179.115,-0.298,0.43,179.362,-4,9,-49,-0.005,-0.007,-0.961,-0.006,-0.002,-0.001,0.961,1.537,0.003,1.507,0.036,39.680576,-75.7523099,2.448,0.01,0.01,0.64,-8957,11.866,0,0,7,7,32428,13978,4,-5,0,1,0,0,0,0
17.7.2015,28:06.0,0,-0.58,0.279,179.12,-0.264,0.349,179.362,11,-2,26,-0.005,-0.006,-0.965,-0.006,0,-0.003,0.965,1.536,0.005,1.604,0.982,39.680576,-75.7523099,2.448,0.01,0.01,0.64,-8957,11.863,0,0,7,7,32428,13978,4,-5,0,1,0,0,0,0
17.7.2015,28:06.0,0,-0.58,0.279,179.12,-0.264,0.349,179.362,11,-2,26,-0.005,-0.006,-0.965,-0.006,0,-0.003,0.965,1.536,0.005,1.604,0.982,39.680576,-75.7523099,2.448,0.01,0.01,0.64,-8957,11.867,0,0,7,7,32428,13978,4,-5,0,1,0,0,0,0
17.7.2015,28:06.1,0,-0.524,0.313,179.128,0.04,0.504,178.922,9,-22,13,0.001,-0.009,-0.958,0.001,-0.001,0.002,0.958,1.545,0.008,1.504,-1.071,39.680576,-75.7523099,2.448,0.01,0.01,0.64,-8957,11.861,0,0,7,7,32428,13978,4,-5,0,1,0,0,0,0
17.7.2015,28:06.1,0,-0.505,0.334,179.129,-0.114,0.367,179.092,-84,49,-22,-0.002,-0.006,-0.96,-0.001,0.002,-0.001,0.96,1.542,0.006,1.508,-1.014,39.680576,-75.7523099,2.433,0.02,-0.01,0.64,-8957,11.864,0,0,7,7,32428,13978,4,-5,0,1,0,0,0,0
17.7.2015,28:06.2,0,-0.505,0.334,179.129,-0.114,0.367,179.092,-84,49,-22,-0.002,-0.006,-0.96,-0.001,0.002,-0.001,0.96,1.542,0.006,1.508,-1.014,39.680576,-75.7523099,2.433,0.02,-0.01,0.64,-8957,11.866,0,0,7,7,32428,13978,4,-5,0,1,0,0,0,0
17.7.2015,28:06.3,0,-0.505,0.334,179.129,-0.114,0.367,179.092,-84,49,-22,-0.002,-0.006,-0.96,-0.001,0.002,-0.001,0.96,1.542,0.006,1.508,-1.014,39.680576,-75.7523099,2.433,0.02,-0.01,0.64,-8957,11.862,0,0,7,7,32428,13978,4,-5,0,1,0,0,0,0
17.7.2015,28:06.4,0,-0.419,0.37,179.127,0.063,0.309,178.982,-23,41,-10,0.001,-0.005,-0.959,0.001,0.003,0,0.959,1.531,0.001,1.499,-0.115,39.680576,-75.7523099,2.433,0.02,-0.01,0.64,-8957,11.863,0,0,7,7,32428,13978,4,-5,0,1,0,0,0,0
17.7.2015,28:06.6,0,-0.35,0.337,179.127,0.143,0.292,178.432,-91,22,30,0.003,-0.005,-0.957,-0.001,0.001,0.002,0.956,1.542,0.005,1.508,-1.049,39.6805759,-75.7523102,2.417,-0.01,-0.03,0.63,-8957,11.867,0,0,7,7,32428,13978,4,-5,0,1,0,0,0,0
17.7.2015,28:06.8,0,-0.23,0.366,179.126,-0.212,0.727,179.252,18,39,-11,-0.004,-0.013,-0.961,-0.008,-0.005,-0.002,0.961,1.534,0.002,1.594,0.951,39.6805758,-75.7523103,2.404,0,0,0.63,-8957,11.865,0,0,7,7,32428,13978,4,-5,0,1,0,0,0,0
17.7.2015,28:06.9,0,-0.273,0.421,179.125,-0.613,0.458,178.322,45,-3,-27,-0.011,-0.008,-0.962,-0.013,0.001,0,0.962,1.535,0.007,1.498,-0.932,39.6805758,-75.7523103,2.404,0,0,0.63,-8957,11.863,0,0,7,7,32428,13978,4,-5,0,1,0,0,0,0
17.7.2015,28:07.0,0,-0.302,0.456,179.121,-0.745,0.682,178.262,14,42,1,-0.013,-0.012,-0.964,-0.012,-0.003,-0.002,0.964,1.532,0.006,1.499,0.053,39.6805758,-75.7523103,2.404,0,0,0.63,-8957,11.865,0,0,7,7,32428,13978,4,-5,0,1,0,0,0,0
17.7.2015,28:07.0,0,-0.323,0.458,179.121,-0.825,0.286,178.872,-42,-1,-23,-0.014,-0.005,-0.963,-0.013,0.004,0.001,0.963,1.529,0.005,1.503,0.056,39.6805758,-75.7523104,2.397,0,0,0.63,-8957,11.866,0,0,7,7,32428,13978,4,-5,0,1,0,0,0,0
17.7.2015,28:07.1,0,-0.349,0.46,179.121,-0.911,0.567,179.032,32,5,-45,-0.016,-0.01,-0.966,-0.013,-0.001,-0.002,0.966,1.528,0.005,1.509,0.103,39.6805758,-75.7523104,2.397,0,0,0.63,-8957,11.863,0,0,7,7,32428,13978,4,-5,0,1,0,0,0,0
17.7.2015,28:07.1,0,-0.367,0.484,179.121,-1.066,0.447,179.692,-6,15,5,-0.019,-0.008,-0.965,-0.015,0.002,-0.001,0.965,1.526,0.004,1.505,0.027,39.6805757,-75.7523105,2.392,0,-0.01,0.63,-8957,11.862,0,0,7,7,32428,13978,4,-5,0,1,0,0,0,0
17.7.2015,28:07.2,0,-0.389,0.494,179.12,-0.848,0.573,179.032,-35,-54,-2,-0.015,-0.01,-0.963,-0.011,0,0.001,0.963,1.528,0.005,1.594,0.841,39.6805757,-75.7523105,2.392,0,-0.01,0.63,-8957,11.865,0,0,7,7,32428,13978,4,-5,0,1,0,0,0,0
17.7.2015,28:07.4,0,-0.505,0.461,179.118,-0.745,0.412,178.812,-10,6,16,-0.013,-0.007,-0.965,-0.001,0,-0.001,0.965,1.527,0.005,1.498,0.049,39.6805757,-75.7523106,2.382,0,0.01,0.63,-8957,11.863,0,0,7,7,32428,13978,4,-5,0,1,0,0,0,0
17.7.2015,28:07.5,0,-0.549,0.429,179.117,-0.699,0.212,178.762,32,-13,23,-0.012,-0.004,-0.961,0.001,0.003,0.002,0.961,1.524,0.001,1.512,0.126,39.6805756,-75.7523107,2.376,0,0,0.63,-8957,11.863,0,0,7,7,32428,13978,4,-5,0,1,0,0,0,0
17.7.2015,28:07.5,0,-0.549,0.429,179.117,-0.699,0.212,178.762,32,-13,23,-0.012,-0.004,-0.961,0.001,0.003,0.002,0.961,1.524,0.001,1.512,0.126,39.6805756,-75.7523107,2.376,0,0,0.63,-8957,11.865,0,0,7,7,32428,13978,4,-5,0,1,0,0,0,0
17.7.2015,28:07.6,0,-0.595,0.409,179.116,-0.671,0.418,178.812,-17,20,15,-0.012,-0.007,-0.963,0.001,-0.001,0.001,0.963,1.547,0.014,1.54,-0.849,39.6805756,-75.7523107,2.376,0,0,0.63,-8957,11.864,0,0,7,7,32428,13978,4,-5,0,1,0,0,0,0
17.7.2015,28:07.7,0,-0.588,0.392,179.114,-0.413,0.275,179.092,5,0,-22,-0.007,-0.005,-0.96,0.004,0,0.003,0.96,1.544,0.011,1.487,-1.814,39.6805756,-75.7523107,2.376,0,0,0.63,-8957,11.863,0,0,7,7,32428,13978,4,-5,0,1,0,0,0,0
17.7.2015,28:07.7,0,-0.566,0.403,179.114,-0.539,0.43,179.582,-15,0,-29,-0.009,-0.007,-0.962,0.001,-0.001,0,0.962,1.54,0.008,1.497,-1.536,39.6805756,-75.7523107,2.376,0,0,0.63,-8957,11.866,0,0,7,7,32428,13978,4,-5,0,1,0,0,0,0
17.7.2015,28:07.8,0,-0.567,0.432,179.111,-0.567,0.487,178.922,9,-71,-2,-0.01,-0.009,-0.964,0,0,-0.001,0.964,1.537,0.007,1.511,0.23,39.6805756,-75.7523108,2.369,-0.01,-0.02,0.63,-8957,11.863,0,0,7,7,32428,13978,4,-5,0,1,0,0,0,0
17.7.2015,28:07.9,0,-0.555,0.416,179.111,-0.361,0.412,179.802,63,14,-8,-0.006,-0.007,-0.961,0.003,0,0.002,0.961,1.535,0.006,1.509,0.05,39.6805755,-75.7523108,2.369,0,-0.01,0.63,-8957,11.864,0,0,7,7,32428,13978,4,-5,0,1,0,0,0,0
17.7.2015,28:08.0,0,-0.518,0.438,179.112,-0.309,0.504,178.152,-18,0,63,-0.005,-0.009,-0.965,0.003,-0.001,-0.002,0.965,1.544,0.011,1.639,1.331,39.6805755,-75.7523108,2.369,0,-0.01,0.63,-8957,11.863,0,0,7,7,32428,13978,4,-5,0,1,0,0,0,0
17.7.2015,28:08.1,0,-0.511,0.411,179.115,-0.395,0.321,179.582,41,-9,-9,-0.007,-0.006,-0.962,0.001,0.001,0.002,0.962,1.547,0.013,1.505,-1.333,39.6805755,-75.7523108,2.369,0,-0.01,0.63,-8957,11.866,0,0,7,7,32428,13978,4,-5,0,1,0,0,0,0
17.7.2015,28:08.2,0,-0.52,0.395,179.116,-0.372,0.412,178.922,-47,25,-10,-0.006,-0.007,-0.961,0.002,-0.001,0.001,0.961,1.542,0.009,1.506,0.005,39.6805754,-75.7523109,2.37,-0.01,-0.01,0.63,-8957,11.862,0,0,7,7,32428,13978,4,-5,0,1,0,0,0,0
17.7.2015,28:08.3,0,-0.513,0.371,179.115,-0.717,0.212,179.092,1,-2,1,-0.013,-0.004,-0.961,-0.004,0.002,0.001,0.961,1.538,0.007,1.5,-0.132,39.6805754,-75.7523109,2.37,-0.01,-0.01,0.63,-8957,11.866,0,0,7,7,32428,13978,4,-5,0,1,0,0,0,0
17.7.2015,28:08.3,0,-0.513,0.371,179.115,-0.717,0.212,179.092,1,-2,1,-0.013,-0.004,-0.961,-0.004,0.002,0.001,0.961,1.538,0.007,1.5,-0.132,39.6805754,-75.752311,2.364,0.01,-0.01,0.63,-8957,11.866,0,0,7,7,32428,13978,4,-5,0,1,0,0,0,0
17.7.2015,28:08.4,0,-0.591,0.338,179.113,-0.814,0.309,179.092,-11,1,31,-0.014,-0.005,-0.963,-0.003,0,0,0.963,1.548,0.014,1.629,1.26,39.6805754,-75.752311,2.364,0.01,-0.01,0.63,-8957,11.866,0,0,7,7,32428,13978,4,-5,0,1,0,0,0,0
17.7.2015,28:08.4,0,-0.617,0.343,179.113,-0.825,0.613,179.032,3,3,9,-0.014,-0.011,-0.961,0,-0.005,0.001,0.961,1.547,0.012,1.501,-1.261,39.6805754,-75.752311,2.364,0.01,-0.01,0.63,-8957,11.864,0,0,7,7,32428,13978,4,-5,0,1,0,0,0,0
17.7.2015,28:08.8,0,-0.606,0.352,179.114,-0.493,0.229,179.862,13,35,19,-0.009,-0.004,-0.958,0.005,0.002,0.004,0.958,1.543,0.009,1.496,-0.87,39.6805754,-75.752311,2.364,0.01,-0.01,0.63,-8957,11.864,0,0,7,7,32428,13978,6,-6,0,1,0,0,0,0
17.7.2015,28:08.9,0,-0.567,0.335,179.112,-0.39,0.584,179.912,19,-29,42,-0.007,-0.01,-0.957,0.001,-0.003,0.003,0.957,1.544,0.008,1.653,1.536,39.6805752,-75.7523111,2.359,-0.02,0,0.63,-8957,11.864,0,0,7,7,32428,13978,6,-6,0,1,0,0,0,0
17.7.2015,28:08.9,0,-0.494,0.354,179.119,-0.218,0.418,179.912,-17,-7,-52,-0.004,-0.007,-0.96,0,-0.001,0,0.96,1.543,0.008,1.503,-0.036,39.6805752,-75.7523111,2.359,-0.02,0,0.63,-8957,11.866,0,0,7,7,32428,13978,6,-6,0,1,0,0,0,0
17.7.2015,28:09.0,0,-0.473,0.36,179.134,-0.086,0.367,179.092,12,-23,-4,-0.002,-0.006,-0.961,0.002,0,-0.001,0.961,1.539,0.006,1.499,-0.073,39.6805752,-75.7523111,2.355,0,0.02,0.63,-8957,11.866,0,0,7,7,32428,13978,6,-6,0,1,0,0,0,0
17.7.2015,28:09.0,0,-0.446,0.383,179.133,-0.132,0.338,179.142,47,-41,-28,-0.002,-0.006,-0.965,0.001,0.001,-0.003,0.964,1.535,0.006,1.497,-0.091,39.6805752,-75.7523111,2.355,0,0.02,0.63,-8957,11.864,0,0,7,7,32428,13978,6,-6,0,1,0,0,0,0
17.7.2015,28:09.1,0,-0.418,0.367,179.136,-0.298,0.367,179.092,9,-26,1,-0.005,-0.006,-0.962,-0.002,0,-0.001,0.962,1.533,0.004,1.564,0.662,39.6805751,-75.7523111,2.358,0,-0.01,0.63,-8957,11.862,0,0,7,7,32428,13978,6,-6,0,1,0,0,0,0
17.7.2015,28:09.3,0,-0.375,0.37,179.136,-0.258,0.43,179.032,-22,12,31,-0.004,-0.007,-0.963,-0.002,-0.001,0,0.962,1.542,0.009,1.561,0.307,39.6805751,-75.7523111,2.358,0,-0.01,0.63,-8957,11.862,0,0,7,7,32428,13978,6,-6,0,1,0,0,0,0
17.7.2015,28:10.2,0,-0.337,0.433,179.146,-0.235,0.475,178.872,-27,-53,-31,-0.004,-0.008,-0.962,0,0.001,0,0.962,1.533,0.004,1.503,-0.085,39.6805751,-75.7523112,2.347,-0.01,0.01,0.63,-8957,11.864,0,0,7,7,32428,13978,6,-6,0,1,0,0,0,0
17.7.2015,28:10.4,0,-0.159,0.477,179.259,-0.183,0.475,178.982,12,-9,-6,-0.003,-0.008,-0.96,-0.001,0.001,0.001,0.96,1.53,0,1.597,0.873,39.6805748,-75.7523112,2.346,0.01,0.01,0.63,-8957,11.865,0,0,7,8,32430,13962,6,-6,0,1,0,0,0,0
17.7.2015,28:10.4,0,-0.159,0.477,179.259,-0.183,0.475,178.982,12,-9,-6,-0.003,-0.008,-0.96,-0.001,0.001,0.001,0.96,1.53,0,1.597,0.873,39.6805748,-75.7523112,2.346,0.01,0.01,0.63,-8957,11.865,0,0,7,5,32430,13960,6,-6,0,1,0,0,0,0
17.7.2015,28:10.6,0,-0.053,0.476,179.263,0.109,0.395,179.032,-54,31,19,0.002,-0.007,-0.961,0,0.002,0,0.961,1.529,0,1.498,-0.106,39.6805748,-75.7523113,2.334,-0.03,-0.03,0.63,-8957,11.866,0,0,7,3,32430,13960,6,-6,0,1,0,0,0,0
17.7.2015,28:10.7,0,-0.026,0.482,179.26,0.012,0.355,179.862,10,77,13,0,-0.006,-0.961,-0.001,0.002,0,0.961,1.525,-0.001,1.573,0.741,39.6805748,-75.7523113,2.334,-0.03,-0.03,0.63,-8957,11.858,0,0,7,3,32430,13957,6,-6,0,1,0,0,0,0
17.7.2015,28:10.8,0,-0.026,0.482,179.26,0.012,0.355,179.862,10,77,13,0,-0.006,-0.961,-0.001,0.002,0,0.961,1.525,-0.001,1.573,0.741,39.6805748,-75.7523113,2.334,-0.03,-0.03,0.63,-8957,11.864,0,0,7,4,32430,13957,6,-6,0,1,0,0,0,0
17.7.2015,28:10.9,0,-0.025,0.457,179.255,-0.229,0.212,179.202,5,32,-17,-0.004,-0.004,-0.96,-0.004,0.004,0.002,0.96,1.533,0.003,1.504,-0.029,39.6805748,-75.7523112,2.322,0.01,-0.01,0.63,-8957,11.866,0,0,7,4,32430,13957,6,-6,0,1,0,0,0,0
17.7.2015,28:10.9,0,-0.054,0.463,179.253,-0.114,0.412,179.862,-6,4,18,-0.002,-0.007,-0.959,-0.001,0.001,0.002,0.959,1.531,0,1.505,-0.015,39.6805748,-75.7523111,2.3,0,-0.01,0.63,-8957,11.864,0,0,7,5,32430,13957,6,-6,0,1,0,0,0,0
17.7.2015,28:11.0,0,-0.071,0.434,179.252,-0.344,0.212,179.202,-50,-34,-41,-0.006,-0.004,-0.959,-0.004,0.003,0.001,0.959,1.528,0,1.507,-0.001,39.6805748,-75.7523111,2.3,0,-0.01,0.63,-8957,11.865,0,0,7,6,32430,13957,6,-6,0,1,0,0,0,0
17.7.2015,28:11.1,0,-0.096,0.422,179.255,-0.086,0.487,179.032,29,24,-19,-0.002,-0.009,-0.96,0.001,-0.002,0.001,0.96,1.529,0,1.582,0.746,39.6805748,-75.7523111,2.3,0,-0.01,0.63,-8957,11.867,0,0,7,4,32430,13958,6,-6,0,1,0,0,0,0
17.7.2015,28:11.1,0,-0.079,0.405,179.251,-0.04,0.069,179.032,1,-29,-46,-0.001,-0.001,-0.959,0,0.005,0.001,0.959,1.536,0.002,1.593,0.924,39.6805747,-75.7523111,2.287,0.01,0,0.63,-8957,11.864,0,0,7,6,32430,13958,6,-6,0,1,0,0,0,0
17.7.2015,28:11.2,0,-0.056,0.377,179.252,-0.017,0.384,179.142,10,33,-23,0,-0.007,-0.96,0,-0.002,0,0.96,1.534,0.001,1.514,-0.704,39.6805747,-75.7523111,2.287,0.01,0,0.63,-8957,11.866,0,0,7,3,32430,13958,6,-6,0,1,0,0,0,0
17.7.2015,28:11.3,0,-0.082,0.405,179.252,-0.212,0.458,179.202,66,-6,8,-0.004,-0.008,-0.962,-0.002,-0.001,-0.001,0.962,1.532,0,1.515,0.011,39.6805747,-75.7523111,2.287,0.01,0,0.63,-8957,11.864,0,0,7,4,32430,13958,6,-6,0,1,0,0,0,0
17.7.2015,28:11.3,0,-0.066,0.395,179.252,-0.057,0.264,179.972,-13,-46,-56,-0.001,-0.005,-0.962,0,0.001,-0.002,0.962,1.53,0,1.516,0.014,39.6805747,-75.7523111,2.287,0.01,0,0.63,-8957,11.865,0,0,7,5,32430,13958,6,-6,0,1,0,0,0,0
17.7.2015,28:11.5,0,-0.072,0.401,179.243,0,0.43,179.032,10,-11,14,0,-0.007,-0.959,0.001,0,0.001,0.959,1.528,0,1.507,-0.06,39.6805747,-75.7523111,2.287,0.01,0,0.63,-8957,11.867,0,0,7,8,32430,13958,6,-6,0,1,0,0,0,0
17.7.2015,28:11.6,0,-0.042,0.478,179.244,0.092,0.584,179.862,-23,11,52,0.002,-0.01,-0.965,0.002,-0.001,-0.004,0.965,1.539,0.006,1.512,-0.925,39.6805746,-75.752311,2.266,0,-0.04,0.63,-8957,11.864,0,0,7,2,32430,13958,6,-6,0,1,0,0,0,0
17.7.2015,28:11.6,0,-0.018,0.46,179.244,-0.006,0.51,179.862,3,-24,5,0,-0.009,-0.96,0,-0.001,0.002,0.96,1.536,0.005,1.505,-0.404,39.6805746,-75.752311,2.266,0,-0.04,0.63,-8957,11.863,0,0,7,8,32430,13958,6,-6,0,1,0,0,0,0
17.7.2015,28:11.7,0,-0.047,0.445,179.244,-0.327,0.378,179.202,30,-35,10,-0.006,-0.007,-0.965,-0.004,0.001,-0.004,0.965,1.532,0.004,1.493,-0.176,39.6805746,-75.752311,2.266,0,-0.04,0.63,-8957,11.866,0,0,7,9,32430,13958,6,-6,0,1,0,0,0,0
17.7.2015,28:11.8,0,-0.074,0.451,179.244,-0.407,0.418,179.862,6,-25,16,-0.007,-0.007,-0.965,-0.004,0.001,-0.003,0.965,1.528,0.002,1.497,-0.018,39.6805746,-75.752311,2.255,0,-0.01,0.63,-8957,11.865,0,0,7,3,32430,13958,6,-6,0,1,0,0,0,0
17.7.2015,28:11.8,0,-0.104,0.458,179.24,-0.361,0.412,178.212,40,-12,19,-0.006,-0.007,-0.961,-0.002,0.001,0.001,0.961,1.525,0.002,1.575,0.808,39.6805746,-75.752311,2.255,0,-0.01,0.63,-8957,11.865,0,0,7,3,32430,13958,6,-6,0,1,0,0,0,0
17.7.2015,28:11.9,0,-0.145,0.46,179.241,-0.573,0.475,179.142,-23,42,12,-0.01,-0.008,-0.965,-0.004,0,-0.002,0.965,1.537,0.009,1.602,0.985,39.6805746,-75.7523109,2.249,-0.01,-0.02,0.63,-8957,11.866,0,0,7,6,32430,13956,6,-6,0,1,0,0,0,0
17.7.2015,28:12.0,0,-0.174,0.467,179.239,-0.424,0.447,178.982,58,-28,-10,-0.007,-0.008,-0.959,-0.001,0.001,0.004,0.959,1.536,0.006,1.504,-1.002,39.6805746,-75.7523109,2.249,-0.01,-0.02,0.63,-8957,11.862,0,0,7,5,32430,13956,6,-6,0,1,0,0,0,0
17.7.2015,28:12.0,0,-0.206,0.471,179.243,-0.539,0.596,178.922,-24,23,-30,-0.009,-0.01,-0.961,0.001,-0.002,0,0.961,1.533,0.004,1.507,-0.01,39.6805746,-75.7523109,2.249,-0.01,-0.02,0.63,-8957,11.86,0,0,7,4,32430,13956,6,-6,0,1,0,0,0,0
17.7.2015,28:12.1,0,-0.235,0.503,179.245,-0.957,0.71,178.652,-46,8,-11,-0.017,-0.012,-0.964,-0.006,-0.001,-0.001,0.964,1.53,0.004,1.511,0.086,39.6805746,-75.7523109,2.249,-0.01,-0.02,0.63,-8957,11.858,0,0,7,5,32430,13956,6,-6,0,1,0,0,0,0
17.7.2015,28:12.2,0,-0.268,0.495,179.245,-0.585,0.504,178.322,53,-25,-17,-0.01,-0.009,-0.964,0.001,0,-0.001,0.964,1.528,0.003,1.507,-0.027,39.6805746,-75.7523108,2.233,0.01,0.01,0.63,-8957,11.866,0,0,7,5,32430,13956,6,-6,0,1,0,0,0,0
17.7.2015,28:12.3,0,-0.308,0.497,179.245,-0.522,0.727,179.692,26,17,-26,-0.009,-0.013,-0.965,0.002,-0.004,-0.002,0.965,1.541,0.008,1.725,2.175,39.6805746,-75.7523108,2.233,0.01,0.01,0.63,-8957,11.864,0,0,7,9,32430,13957,6,-6,0,1,0,0,0,0
17.7.2015,28:12.3,0,-0.308,0.497,179.245,-0.522,0.727,179.692,26,17,-26,-0.009,-0.013,-0.965,0.002,-0.004,-0.002,0.965,1.541,0.008,1.725,2.175,39.6805745,-75.7523108,2.223,-0.01,0,0.63,-8957,11.864,0,0,7,4,32430,13957,6,-6,0,1,0,0,0,0
17.7.2015,28:12.4,0,-0.363,0.489,179.248,-0.556,0.584,179.202,-64,-7,14,-0.01,-0.01,-0.961,0.001,-0.002,0.002,0.961,1.556,0.015,1.507,-2.204,39.6805745,-75.7523108,2.223,-0.01,0,0.63,-8957,11.867,0,0,7,3,32430,13957,6,-6,0,1,0,0,0,0
17.7.2015,28:12.6,0,-0.447,0.475,179.242,-0.653,0.647,178.982,-12,-14,-35,-0.011,-0.011,-0.961,0,-0.003,0.002,0.961,1.544,0.01,1.506,-0.063,39.6805745,-75.7523108,2.223,-0.01,0,0.63,-8957,11.865,0,0,7,3,32430,13957,6,-6,0,1,0,0,0,0
17.7.2015,28:12.7,0,-0.466,0.472,179.228,-0.292,0.51,178.812,-38,1,-5,-0.005,-0.009,-0.961,0.005,-0.001,0,0.961,1.546,0.01,1.594,0.892,39.6805745,-75.7523107,2.217,0.01,0,0.63,-8957,11.867,0,0,7,7,32430,13956,6,-6,0,1,0,0,0,0
17.7.2015,28:12.8,0,-0.482,0.493,179.208,-0.522,0.458,178.982,-1,-60,5,-0.009,-0.008,-0.962,0.001,0.001,0,0.962,1.551,0.013,1.515,-0.758,39.6805745,-75.7523106,2.205,-0.02,-0.01,0.63,-8957,11.861,0,0,7,5,32430,13956,6,-6,0,1,0,0,0,0
17.7.2015,28:12.9,0,-0.482,0.493,179.208,-0.522,0.458,178.982,-1,-60,5,-0.009,-0.008,-0.962,0.001,0.001,0,0.962,1.551,0.013,1.515,-0.758,39.6805745,-75.7523106,2.205,-0.02,-0.01,0.63,-8957,11.869,0,0,7,5,32430,13956,6,-6,0,1,0,0,0,0
17.7.2015,28:13.0,0,-0.482,0.493,179.208,-0.522,0.458,178.982,-1,-60,5,-0.009,-0.008,-0.962,0.001,0.001,0,0.962,1.551,0.013,1.515,-0.758,39.6805744,-75.7523105,2.199,0.01,-0.03,0.63,-8957,11.862,0,0,7,4,32430,13956,6,-6,0,1,0,0,0,0
17.7.2015,28:13.1,0,-0.529,0.489,179.129,-0.619,0.601,178.922,33,1,9,-0.011,-0.011,-0.962,-0.001,-0.003,0,0.962,1.542,0.007,1.622,1.209,39.6805744,-75.7523105,2.199,0.01,-0.03,0.63,-8957,11.864,0,0,7,5,32430,13957,6,-6,0,1,0,0,0,0
17.7.2015,28:13.1,0,-0.558,0.49,179.125,-0.808,0.367,178.922,51,41,24,-0.014,-0.006,-0.961,-0.003,0.001,0.001,0.961,1.547,0.01,1.509,-1.089,39.6805745,-75.7523104,2.168,0,0.02,0.63,-8957,11.864,0,0,7,7,32430,13957,6,-6,0,1,0,0,0,0
17.7.2015,28:13.2,0,-0.588,0.465,179.118,-0.894,0.464,178.922,40,12,17,-0.016,-0.008,-0.963,-0.004,-0.001,-0.001,0.963,1.543,0.007,1.503,-1.129,39.6805745,-75.7523104,2.168,0,0.02,0.63,-8957,11.864,0,0,7,7,32430,13957,6,-6,0,1,0,0,0,0
17.7.2015,28:13.3,0,-0.616,0.457,179.105,-0.923,0.601,178.762,22,-29,1,-0.016,-0.011,-0.96,-0.001,-0.003,0.003,0.96,1.539,0.005,1.504,-0.002,39.6805745,-75.7523104,2.168,0,0.02,0.63,-8957,11.859,0,0,7,7,32430,13957,6,-6,0,1,0,0,0,0
17.7.2015,28:13.3,0,-0.647,0.485,179.088,-0.992,0.573,178.762,45,-24,-28,-0.017,-0.01,-0.963,-0.001,-0.001,-0.001,0.963,1.536,0.002,1.509,0.069,39.6805745,-75.7523104,2.152,-0.01,0.01,0.63,-8957,11.858,0,0,7,5,32430,13957,6,-6,0,1,0,0,0,0
17.7.2015,28:13.5,0,-0.706,0.471,179.025,-1.066,0.63,178.702,-27,-45,-58,-0.019,-0.011,-0.961,-0.001,-0.003,0.002,0.961,1.536,0.003,1.604,0.984,39.6805745,-75.7523104,2.152,-0.01,0.01,0.63,-8957,11.864,0,0,7,3,32430,13956,6,-6,0,1,0,0,0,0
17.7.2015,28:13.5,0,-0.747,0.47,179.009,-0.888,0.487,178.702,-24,20,37,-0.015,-0.009,-0.961,0.001,0,0.001,0.961,1.542,0.006,1.505,-0.926,39.6805744,-75.7523103,2.146,0,-0.02,0.63,-8957,11.864,0,0,7,7,32430,13956,6,-6,0,1,0,0,0,0
17.7.2015,28:13.6,0,-0.768,0.474,179.003,-0.831,0.464,178.702,9,-6,3,-0.015,-0.008,-0.964,0.001,0,-0.002,0.964,1.538,0.004,1.507,-0.938,39.6805744,-75.7523103,2.146,0,-0.02,0.63,-8957,11.866,0,0,7,5,32430,13956,6,-6,0,1,0,0,0,0
17.7.2015,28:13.6,0,-0.758,0.473,178.972,-0.877,0.183,178.872,29,-53,37,-0.015,-0.003,-0.965,-0.001,0.005,-0.002,0.965,1.535,0.004,1.505,-0.006,39.6805744,-75.7523103,2.146,0,-0.02,0.63,-8957,11.866,0,0,7,4,32430,13956,6,-6,0,1,0,0,0,0
17.7.2015,28:13.7,0,-0.771,0.472,178.956,-0.745,0.647,178.812,2,12,7,-0.013,-0.011,-0.963,0.001,-0.003,0,0.963,1.532,0.002,1.506,-0.027,39.6805744,-75.7523102,2.126,0,-0.02,0.63,-8957,11.866,0,0,7,7,32430,13956,6,-6,0,1,0,0,0,0
17.7.2015,28:13.8,0,-0.799,0.502,178.949,-0.951,0.63,178.432,10,-33,18,-0.017,-0.011,-0.965,-0.001,0.001,-0.001,0.965,1.528,0.001,1.497,-0.113,39.6805744,-75.7523102,2.126,0,-0.02,0.63,-8957,11.862,0,0,7,6,32430,13956,6,-6,0,1,0,0,0,0
17.7.2015,28:13.8,0,-0.83,0.532,178.926,-1.163,0.727,178.482,-15,2,18,-0.02,-0.013,-0.967,-0.002,-0.001,-0.003,0.967,1.534,0.005,1.597,0.982,39.6805744,-75.7523102,2.126,0,-0.02,0.63,-8957,11.862,0,0,7,7,32430,13958,6,-6,0,1,0,0,0,0
17.7.2015,28:13.9,0,-0.861,0.555,178.904,-1.055,0.664,178.482,-1,-27,23,-0.018,-0.012,-0.965,0,0,0,0.965,1.539,0.008,1.51,-0.781,39.6805743,-75.7523101,2.113,0.01,-0.02,0.63,-8957,11.862,0,0,7,6,32430,13958,6,-6,0,1,0,0,0,0
17.7.2015,28:14.0,0,-0.89,0.585,178.889,-1.032,0.619,178.482,-40,11,-21,-0.018,-0.011,-0.967,0.002,0.002,-0.001,0.967,1.536,0.007,1.509,-0.894,39.6805743,-75.7523101,2.113,0.01,-0.02,0.63,-8957,11.866,0,0,7,5,32430,13958,6,-6,0,1,0,0,0,0
17.7.2015,28:14.1,0,-0.931,0.607,178.843,-1.324,0.573,178.042,20,-29,10,-0.023,-0.01,-0.96,-0.002,0.004,0.005,0.96,1.531,0.003,1.493,-0.175,39.6805743,-75.7523101,2.113,0.01,-0.02,0.63,-8957,11.866,0,0,7,7,32430,13958,6,-6,0,1,0,0,0,0
17.7.2015,28:14.1,0,-0.931,0.607,178.843,-1.324,0.573,178.042,20,-29,10,-0.023,-0.01,-0.96,-0.002,0.004,0.005,0.96,1.531,0.003,1.493,-0.175,39.6805743,-75.75231,2.108,0.01,-0.02,0.63,-8957,11.866,0,0,7,5,32430,13958,6,-6,0,1,0,0,0,0
17.7.2015,28:14.2,0,-0.982,0.594,178.819,-1.032,0.475,178.322,-11,23,30,-0.018,-0.008,-0.963,0.003,0.002,0.001,0.963,1.526,0,1.585,0.872,39.6805743,-75.75231,2.108,0.01,-0.02,0.63,-8957,11.865,0,0,7,-50,32430,13956,6,-6,0,1,0,0,0,0
17.7.2015,28:14.3,0,-0.982,0.594,178.819,-1.032,0.475,178.322,-11,23,30,-0.018,-0.008,-0.963,0.003,0.002,0.001,0.963,1.526,0,1.585,0.872,39.6805743,-75.75231,2.108,0.01,-0.02,0.63,-8957,11.864,0,0,7,-50,32430,13956,6,-6,0,1,0,0,0,0
17.7.2015,28:14.3,0,-0.982,0.594,178.819,-1.032,0.475,178.322,-11,23,30,-0.018,-0.008,-0.963,0.003,0.002,0.001,0.963,1.526,0,1.585,0.872,39.6805743,-75.7523099,2.1,0,-0.01,0.63,-8957,11.866,0,0,7,6,32430,13956,6,-6,0,1,0,0,0,0
17.7.2015,28:14.5,0,-0.888,0.582,178.73,-0.711,0.527,178.482,-20,18,27,-0.012,-0.009,-0.961,0.003,0,0.002,0.961,1.531,0.001,1.501,-0.025,39.6805743,-75.7523099,2.1,0,-0.01,0.63,-8957,11.863,0,0,7,9,32430,13956,6,-6,0,1,0,0,0,0
17.7.2015,28:14.6,0,-0.834,0.539,178.703,-0.682,0.367,178.322,21,6,-21,-0.012,-0.006,-0.962,0.001,0.001,0.001,0.962,1.522,-0.004,1.497,0.07,39.6805742,-75.7523098,2.087,0.01,-0.02,0.63,-8957,11.864,0,0,7,4,32430,13956,6,-6,0,1,0,0,0,0
17.7.2015,28:14.7,0,-0.774,0.508,178.685,-0.585,0.487,178.542,-44,-35,-1,-0.01,-0.009,-0.965,0,0,-0.003,0.965,1.533,0.002,1.545,-0.042,39.6805742,-75.7523098,2.087,0.01,-0.02,0.63,-8957,11.866,0,0,7,5,32430,13956,6,-6,0,1,0,0,0,0
17.7.2015,28:14.7,0,-0.746,0.534,178.674,-0.246,0.596,178.372,43,-42,-10,-0.004,-0.01,-0.962,0.004,-0.001,0,0.962,1.53,0,1.499,-0.99,39.6805742,-75.7523098,2.087,0.01,-0.02,0.63,-8957,11.866,0,0,7,7,32430,13956,6,-6,0,1,0,0,0,0
17.7.2015,28:15.0,0,-0.637,0.641,178.666,-0.212,0.63,178.152,3,-25,-17,-0.004,-0.011,-0.963,0.002,0.002,0,0.963,1.521,-0.003,1.575,0.703,39.6805741,-75.7523097,2.074,0.01,-0.02,0.63,-8957,11.864,0,0,7,-112,32430,13954,6,-5,0,1,0,0,0,0
17.7.2015,28:15.0,0,-0.606,0.615,178.665,-0.59,0.727,178.982,31,-25,30,-0.01,-0.013,-0.962,-0.003,-0.001,0.001,0.962,1.531,0.001,1.597,0.942,39.6805741,-75.7523097,2.074,0.01,-0.02,0.63,-8957,11.862,0,0,7,7,32430,13954,6,-5,0,1,0,0,0,0
17.7.2015,28:15.1,0,-0.577,0.608,178.667,-0.034,0.309,179.202,1,51,-44,-0.001,-0.005,-0.962,0.004,0.005,0,0.962,1.531,0,1.507,-0.905,39.6805741,-75.7523097,2.061,0,-0.02,0.63,-8957,11.862,0,0,7,3,32430,13954,6,-5,0,1,0,0,0,0
17.7.2015,28:15.2,0,-0.547,0.575,178.666,-0.006,0.378,178.652,-3,15,32,0,-0.007,-0.96,0.004,0.001,0.002,0.96,1.528,-0.001,1.502,-0.076,39.6805741,-75.7523097,2.061,0,-0.02,0.63,-8957,11.863,0,0,7,5,32430,13954,6,-5,0,1,0,0,0,0
17.7.2015,28:15.2,0,-0.518,0.57,178.665,0.172,0.304,179.472,-16,6,-43,0.003,-0.005,-0.962,0.005,0.003,0,0.962,1.525,-0.003,1.495,-0.141,39.6805741,-75.7523097,2.061,0,-0.02,0.63,-8957,11.862,0,0,7,7,32430,13954,6,-5,0,1,0,0,0,0
17.7.2015,28:15.3,0,-0.49,0.539,178.665,0.046,0.304,178.542,-14,-6,-3,0.001,-0.005,-0.959,0.002,0.002,0.001,0.959,1.521,-0.005,1.498,-0.006,39.6805741,-75.7523097,2.061,0,-0.02,0.63,-8957,11.866,0,0,7,8,32430,13954,6,-5,0,1,0,0,0,0
17.7.2015,28:15.4,0,-0.49,0.539,178.665,0.046,0.304,178.542,-14,-6,-3,0.001,-0.005,-0.959,0.002,0.002,0.001,0.959,1.521,-0.005,1.498,-0.006,39.680574,-75.7523096,2.055,-0.01,-0.02,0.63,-8957,11.863,0,0,7,-4,32430,13952,6,-5,0,1,0,0,0,0
17.7.2015,28:15.4,0,-0.437,0.516,178.664,0.126,0.458,179.362,-22,-13,21,0.002,-0.008,-0.959,0.001,0,0,0.959,1.528,-0.001,1.588,0.887,39.680574,-75.7523096,2.055,-0.01,-0.02,0.63,-8957,11.864,0,0,7,5,32430,13952,6,-5,0,1,0,0,0,0
17.7.2015,28:15.6,0,-0.36,0.519,178.654,0.235,0.739,178.872,-48,-81,17,0.004,-0.013,-0.964,0,-0.004,-0.003,0.964,1.524,-0.003,1.504,0.027,39.6805739,-75.7523096,2.062,0,-0.01,0.63,-8957,11.866,0,0,7,7,32430,13952,6,-5,0,1,0,0,0,0
17.7.2015,28:15.7,0,-0.323,0.522,178.654,0.395,0.538,178.592,54,19,-26,0.007,-0.009,-0.959,0.002,0,0.001,0.959,1.521,-0.005,1.505,0.025,39.6805739,-75.7523096,2.062,0,-0.01,0.63,-8957,11.862,0,0,7,7,32430,13952,6,-5,0,1,0,0,0,0
17.7.2015,28:15.7,0,-0.294,0.551,178.652,0.235,0.739,179.472,-26,0,-43,0.004,-0.013,-0.962,-0.002,-0.003,-0.001,0.962,1.518,-0.005,1.501,-0.019,39.6805739,-75.7523096,2.054,0,0.01,0.63,-8957,11.861,0,0,7,5,32430,13952,6,-5,0,1,0,0,0,0
17.7.2015,28:15.8,0,-0.235,0.6,178.661,0.172,0.527,178.482,-23,-45,-6,0.003,-0.009,-0.96,-0.002,0.004,0,0.96,1.539,0.004,1.497,-1.484,39.6805739,-75.7523096,2.054,0,0.01,0.63,-8957,11.861,0,0,7,5,32430,13949,6,-5,0,1,0,0,0,0
17.7.2015,28:15.9,0,-0.209,0.586,178.663,0.241,0.258,178.812,12,35,26,0.004,-0.004,-0.963,0,0.006,-0.002,0.963,1.534,0.002,1.498,-1.477,39.6805738,-75.7523095,2.059,-0.01,-0.02,0.63,-8957,11.865,0,0,7,5,32430,13949,6,-5,0,1,0,0,0,0
17.7.2015,28:16.0,0,-0.179,0.582,178.658,0.143,0.527,178.872,30,-2,-87,0.003,-0.009,-0.961,-0.003,0.001,0.001,0.961,1.53,0,1.502,0.033,39.6805738,-75.7523095,2.059,-0.01,-0.02,0.63,-8957,11.865,0,0,7,4,32429,13949,6,-5,0,1,0,0,0,0
17.7.2015,28:16.1,0,-0.135,0.56,178.656,0.103,0.802,178.872,-57,52,-14,0.002,-0.014,-0.965,-0.002,-0.005,-0.002,0.965,1.525,-0.001,1.498,-0.056,39.6805738,-75.7523095,2.059,-0.01,-0.02,0.63,-8957,11.867,0,0,7,6,32429,13949,6,-5,0,1,0,0,0,0
17.7.2015,28:16.2,0,-0.104,0.58,178.656,0.029,0.55,178.702,-18,-23,15,0.001,-0.01,-0.963,-0.003,0.001,0,0.963,1.53,0.001,1.598,0.948,39.6805737,-75.7523095,2.056,0.01,0,0.63,-8957,11.863,0,0,7,7,32429,13947,6,-5,0,1,0,0,0,0
17.7.2015,28:16.2,0,-0.115,0.564,178.654,-0.212,0.338,178.872,29,-34,5,-0.004,-0.006,-0.967,-0.005,0.003,-0.003,0.967,1.535,0.005,1.494,-1.054,39.6805737,-75.7523095,2.056,0.01,0,0.63,-8957,11.865,0,0,7,7,32427,13947,6,-5,0,1,0,0,0,0
17.7.2015,28:16.3,0,-0.107,0.533,178.654,-0.218,0.475,178.702,-19,7,-11,-0.004,-0.008,-0.965,-0.004,0,-0.001,0.965,1.531,0.002,1.492,-1.089,39.6805737,-75.7523095,2.056,0,0,0.63,-8957,11.86,0,0,7,6,32427,13947,6,-5,0,1,0,0,0,0
17.7.2015,28:16.4,0,-0.135,0.522,178.702,-0.327,0.367,178.812,37,0,-20,-0.006,-0.006,-0.963,-0.004,0.001,0.002,0.963,1.527,0.001,1.494,0,39.6805737,-75.7523095,2.056,0,0,0.63,-8957,11.865,0,0,7,5,32427,13947,6,-5,0,1,0,0,0,0
17.7.2015,28:16.4,0,-0.155,0.508,178.733,-0.361,0.493,179.692,42,14,2,-0.006,-0.009,-0.962,-0.004,0,0.002,0.962,1.523,-0.001,1.499,0.039,39.6805737,-75.7523095,2.056,0,0,0.63,-8957,11.862,0,0,7,4,32426,13947,6,-5,0,1,0,0,0,0
17.7.2015,28:16.5,0,-0.183,0.479,178.763,-0.2,0.447,179.142,-7,36,-52,-0.004,-0.008,-0.963,0,-0.001,0,0.963,1.521,-0.003,1.501,0.043,39.6805737,-75.7523095,2.056,0,0,0.63,-8957,11.86,0,0,7,6,32426,13947,6,-5,0,1,0,0,0,0
17.7.2015,28:16.6,0,-0.212,0.457,178.779,-0.212,0.258,179.092,-13,-46,51,-0.004,-0.004,-0.963,0.002,0.002,0,0.963,1.528,0.001,1.597,0.945,39.6805736,-75.7523094,2.065,0.01,-0.02,0.63,-8957,11.864,0,0,7,6,32426,13947,6,-5,0,1,0,0,0,0
17.7.2015,28:16.6,0,-0.187,0.427,178.794,-0.132,0.246,180.022,-43,-1,-39,-0.002,-0.004,-0.966,0,0.002,-0.002,0.966,1.532,0.004,1.495,-1.04,39.6805736,-75.7523094,2.065,0.01,-0.02,0.63,-8957,11.864,0,0,7,5,32426,13947,6,-5,0,1,0,0,0,0
17.7.2015,28:16.7,0,-0.162,0.395,178.856,-0.2,0.286,179.312,4,-15,6,-0.004,-0.005,-0.959,-0.002,0,0.005,0.959,1.528,0.001,1.486,-1.103,39.6805735,-75.7523094,2.079,0,-0.01,0.63,-8957,11.864,0,0,7,6,32425,13947,6,-5,0,1,0,0,0,0
17.7.2015,28:16.8,0,-0.192,0.394,178.909,-0.378,0.567,179.312,21,-53,-6,-0.007,-0.01,-0.962,-0.004,-0.004,0.002,0.962,1.523,-0.002,1.492,0.001,39.6805735,-75.7523094,2.079,0,-0.01,0.63,-8957,11.866,0,0,7,5,32425,13947,6,-5,0,1,0,0,0,0
17.7.2015,28:16.8,0,-0.224,0.419,178.914,-0.413,0.349,178.922,-8,-57,1,-0.007,-0.006,-0.964,-0.001,0.002,0,0.964,1.52,-0.003,1.497,0.08,39.6805735,-75.7523094,2.079,0,-0.01,0.63,-8957,11.863,0,0,7,5,32424,13947,6,-5,0,1,0,0,0,0
17.7.2015,28:16.9,0,-0.241,0.407,178.914,-0.069,0.412,178.922,-28,-7,-10,-0.001,-0.007,-0.964,0.005,0,0,0.964,1.517,-0.005,1.505,0.117,39.6805735,-75.7523094,2.079,0,-0.01,0.63,-8957,11.863,0,0,7,2,32424,13947,6,-5,0,1,0,0,0,0
17.7.2015,28:17.0,0,-0.237,0.379,178.914,-0.436,0.223,179.252,52,2,23,-0.008,-0.004,-0.965,-0.002,0.001,-0.001,0.965,1.528,0.001,1.66,1.636,39.6805734,-75.7523093,2.093,0.01,0,0.63,-8957,11.865,0,0,7,4,32424,13948,6,-5,0,1,0,0,0,0
17.7.2015,28:17.0,0,-0.238,0.369,178.919,-0.327,0.63,179.092,3,44,7,-0.006,-0.011,-0.962,0,-0.005,0.003,0.962,1.54,0.007,1.5,-1.561,39.6805734,-75.7523093,2.093,0.01,0,0.63,-8957,11.861,0,0,7,4,32424,13948,6,-5,0,1,0,0,0,0
17.7.2015,28:17.1,0,-0.23,0.364,178.922,-0.097,0.275,179.252,38,6,7,-0.002,-0.005,-0.964,0.003,0.001,0.001,0.964,1.535,0.004,1.5,-1.526,39.6805733,-75.7523092,2.107,-0.01,-0.01,0.63,-8957,11.859,0,0,7,5,32424,13948,6,-5,0,1,0,0,0,0
17.7.2015,28:17.1,0,-0.213,0.355,178.925,-0.166,0.223,179.252,-55,10,3,-0.003,-0.004,-0.962,0.001,0.001,0.001,0.962,1.531,0,1.486,-0.121,39.6805733,-75.7523092,2.107,-0.01,-0.01,0.63,-8957,11.862,0,0,7,5,32422,13948,6,-5,0,1,0,0,0,0
17.7.2015,28:17.2,0,-0.19,0.331,178.933,-0.017,0.138,179.312,2,-24,22,0,-0.002,-0.965,0.001,0.003,-0.002,0.965,1.525,-0.002,1.482,-0.142,39.6805733,-75.7523092,2.107,-0.01,-0.01,0.63,-8957,11.861,0,0,7,5,32422,13948,6,-5,0,1,0,0,0,0
17.7.2015,28:17.3,0,-0.161,0.317,178.944,-0.017,0.418,179.142,-19,34,34,0,-0.007,-0.962,0,-0.002,0,0.962,1.52,-0.005,1.485,0.051,39.6805733,-75.7523092,2.107,-0.01,-0.01,0.63,-8957,11.859,0,0,7,7,32422,13948,6,-5,0,1,0,0,0,0
17.7.2015,28:17.4,0,-0.175,0.319,178.952,-0.218,0.138,179.142,-15,10,-6,-0.004,-0.002,-0.964,-0.002,0.003,-0.002,0.964,1.53,0,1.639,1.533,39.6805732,-75.7523092,2.132,0,-0.02,0.63,-8957,11.861,0,0,7,4,32422,13946,6,-5,0,1,0,0,0,0
17.7.2015,28:17.5,0,-0.186,0.323,178.972,0.029,0.12,179.142,-41,-26,1,0.001,-0.002,-0.96,0.002,0.003,0.003,0.96,1.531,0.001,1.481,-1.014,39.680573,-75.7523091,2.168,0,-0.02,0.63,-8957,11.866,0,0,7,5,32422,13946,6,-5,0,1,0,0,0,0
17.7.2015,28:17.6,0,-0.156,0.331,179.022,-0.086,0.321,179.312,29,-4,-58,-0.002,-0.006,-0.965,0,0.001,-0.002,0.965,1.519,-0.005,1.483,0.022,39.680573,-75.7523091,2.168,0,-0.02,0.63,-8957,11.861,0,0,7,6,32420,13946,6,-5,0,1,0,0,0,0
17.7.2015,28:17.7,0,-0.169,0.302,179.038,0.023,0.223,179.312,15,32,6,0,-0.004,-0.963,0.003,0.001,0.001,0.963,1.517,-0.006,1.58,0.97,39.680573,-75.7523091,2.168,0,-0.02,0.63,-8957,11.866,0,0,7,-12,32420,13946,6,-5,0,1,0,0,0,0
17.7.2015,28:17.8,0,-0.139,0.272,179.06,0.092,0.149,179.582,27,-28,1,0.002,-0.003,-0.962,0.003,0,0.001,0.962,1.524,-0.003,1.579,0.921,39.6805729,-75.7523091,2.195,-0.01,0,0.63,-8957,11.866,0,0,7,5,32419,13946,6,-5,0,1,0,0,0,0
17.7.2015,28:17.8,0,-0.108,0.276,179.086,0.201,0.332,179.582,-55,7,17,0.004,-0.006,-0.965,0.004,-0.002,-0.002,0.964,1.523,-0.002,1.482,-0.994,39.6805729,-75.7523091,2.195,-0.01,0,0.63,-8957,11.865,0,0,7,8,32419,13946,6,-5,0,1,0,0,0,0
17.7.2015,28:17.9,0,-0.099,0.269,179.106,-0.12,0.412,179.472,-37,-18,-16,-0.002,-0.007,-0.962,-0.002,-0.003,0.001,0.962,1.518,-0.006,1.479,-0.226,39.6805728,-75.752309,2.22,0.01,-0.01,0.63,-8957,11.865,0,0,7,7,32418,13946,6,-5,0,1,0,0,0,0
17.7.2015,28:17.9,0,-0.07,0.293,179.157,0.103,0.178,179.472,67,5,15,0.002,-0.003,-0.961,0.001,0.002,0.001,0.961,1.513,-0.008,1.48,0,39.6805728,-75.752309,2.22,0.01,-0.01,0.63,-8957,11.867,0,0,7,4,32418,13946,6,-5,0,1,0,0,0,0
17.7.2015,28:18.0,0,-0.056,0.288,179.175,-0.023,0.292,178.812,-20,-7,41,0,-0.005,-0.963,-0.001,0,0,0.963,1.509,-0.01,1.477,-0.024,39.6805728,-75.752309,2.22,0.01,-0.01,0.63,-8957,11.861,0,0,7,5,32416,13946,6,-5,0,1,0,0,0,0
17.7.2015,28:18.1,0,-0.061,0.261,179.195,-0.327,0.246,180.462,-25,0,67,-0.006,-0.004,-0.963,-0.005,0,-0.001,0.963,1.507,-0.011,1.563,0.833,39.6805728,-75.752309,2.22,0.01,-0.01,0.63,-8957,11.865,0,0,7,-11,32416,13944,6,-5,0,1,0,0,0,0
17.7.2015,28:18.2,0,-0.09,0.288,179.225,-0.218,0.556,180.462,30,28,-4,-0.004,-0.01,-0.963,-0.002,-0.004,-0.002,0.963,1.513,-0.007,1.566,0.943,39.6805726,-75.7523089,2.263,0,-0.01,0.63,-8957,11.864,0,0,7,5,32416,13944,6,-5,0,1,0,0,0,0
17.7.2015,28:18.2,0,-0.09,0.288,179.225,-0.218,0.556,180.462,30,28,-4,-0.004,-0.01,-0.963,-0.002,-0.004,-0.002,0.963,1.513,-0.007,1.566,0.943,39.6805726,-75.7523089,2.263,0,-0.01,0.63,-8957,11.863,0,0,7,6,32416,13944,6,-5,0,1,0,0,0,0
17.7.2015,28:18.3,0,-0.146,0.263,179.271,-0.298,0.155,179.422,43,5,-17,-0.005,-0.003,-0.961,-0.001,0.001,0.001,0.961,1.505,-0.011,1.467,-0.067,39.6805726,-75.7523089,2.263,0,-0.01,0.63,-8957,11.863,0,0,7,3,32416,13944,6,-5,0,1,0,0,0,0
17.7.2015,28:18.3,0,-0.176,0.264,179.29,-0.315,0.046,179.422,23,-33,-9,-0.005,-0.001,-0.965,0,0.003,-0.003,0.965,1.499,-0.013,1.466,-0.004,39.6805725,-75.7523088,2.305,-0.01,0,0.63,-8957,11.864,0,0,7,4,32416,13944,6,-5,0,1,0,0,0,0
17.7.2015,28:18.5,0,-0.235,0.257,179.299,-0.516,0.086,179.532,-46,57,-14,-0.009,-0.002,-0.962,-0.001,0.003,0.001,0.962,1.493,-0.015,1.562,0.945,39.6805725,-75.7523088,2.305,-0.01,0,0.63,-8957,11.863,0,0,7,7,32416,13944,6,-5,0,1,0,0,0,0
17.7.2015,28:18.6,0,-0.273,0.241,179.334,-0.332,0.166,180.412,4,27,-22,-0.006,-0.003,-0.967,0.001,0.001,-0.003,0.967,1.502,-0.009,1.494,-0.392,39.6805723,-75.7523087,2.35,0.02,-0.01,0.63,-8957,11.866,0,0,7,8,32414,13944,6,-5,0,1,0,0,0,0
17.7.2015,28:18.6,0,-0.273,0.241,179.334,-0.332,0.166,180.412,4,27,-22,-0.006,-0.003,-0.967,0.001,0.001,-0.003,0.967,1.502,-0.009,1.494,-0.392,39.6805723,-75.7523087,2.35,0.02,-0.01,0.63,-8957,11.863,0,0,7,3,32414,13944,6,-5,0,1,0,0,0,0
17.7.2015,28:18.7,0,-0.323,0.23,179.348,-0.281,-0.051,179.312,18,0,-24,-0.005,0.001,-0.96,0.003,0.004,0.004,0.96,1.491,-0.014,1.464,0.088,39.6805721,-75.7523087,2.385,-0.01,-0.02,0.63,-8957,11.865,0,0,7,8,32414,13944,6,-5,0,1,0,0,0,0
17.7.2015,28:18.8,0,-0.34,0.221,179.348,-0.395,0.321,179.312,3,-12,-56,-0.007,-0.006,-0.959,0.001,-0.002,0.004,0.959,1.486,-0.017,1.461,0.014,39.6805721,-75.7523087,2.385,-0.01,-0.02,0.63,-8957,11.863,0,0,7,7,32414,13944,6,-5,0,1,0,0,0,0
17.7.2015,28:18.8,0,-0.319,0.222,179.346,-0.275,0.195,179.312,15,-1,-53,-0.005,-0.003,-0.965,0.002,0,-0.001,0.965,1.482,-0.019,1.46,-0.035,39.6805721,-75.7523087,2.385,-0.01,-0.02,0.63,-8957,11.863,0,0,7,5,32413,13944,6,-5,0,1,0,0,0,0
17.7.2015,28:18.9,0,-0.345,0.193,179.344,-0.717,0.166,180.462,7,40,2,-0.013,-0.003,-0.965,-0.005,-0.002,-0.001,0.965,1.493,-0.012,1.607,1.447,39.6805721,-75.7523087,2.385,-0.01,-0.02,0.63,-8957,11.861,0,0,7,8,32413,13944,6,-5,0,1,0,0,0,0
17.7.2015,28:19.0,0,-0.373,0.183,179.381,-0.522,0.223,179.802,3,40,-12,-0.009,-0.004,-0.964,0,-0.002,0,0.964,1.501,-0.008,1.463,-1.458,39.6805719,-75.7523087,2.429,0,-0.03,0.63,-8957,11.866,0,0,7,4,32413,13944,6,-5,0,1,0,0,0,0
17.7.2015,28:19.2,0,-0.462,0.192,179.418,-0.648,0.12,180.522,-8,49,-20,-0.011,-0.002,-0.966,-0.002,0.001,-0.002,0.966,1.486,-0.014,1.444,-0.223,39.6805717,-75.7523086,2.481,0.01,-0.03,0.63,-8957,11.863,0,0,7,6,32412,13944,6,-5,0,1,0,0,0,0
17.7.2015,28:19.3,0,-0.5,0.214,179.458,-0.682,0.264,179.252,-37,15,19,-0.012,-0.005,-0.967,-0.002,0,-0.003,0.967,1.485,-0.013,1.527,0.835,39.6805717,-75.7523086,2.481,0.01,-0.03,0.63,-8957,11.858,0,0,7,4,32411,13945,6,-5,0,1,0,0,0,0
17.7.2015,28:19.3,0,-0.531,0.242,179.456,-0.699,0.332,180.242,6,-1,-4,-0.012,-0.006,-0.964,0,-0.001,0.002,0.964,1.487,-0.01,1.458,-0.624,39.6805716,-75.7523086,2.528,0,-0.02,0.63,-8957,11.857,0,0,7,7,32411,13945,6,-5,0,1,0,0,0,0
17.7.2015,28:19.4,0,-0.562,0.234,179.472,-0.567,0.195,179.202,-7,29,-45,-0.01,-0.003,-0.962,0.003,0.001,0.002,0.962,1.483,-0.013,1.453,-0.777,39.6805716,-75.7523086,2.528,0,-0.02,0.63,-8957,11.852,0,0,7,9,32411,13945,6,-5,0,1,0,0,0,0
17.7.2015,28:19.5,0,-0.538,0.229,179.471,-0.407,0.475,179.362,-12,-14,40,-0.007,-0.008,-0.966,0.004,-0.004,-0.002,0.966,1.477,-0.016,1.454,-0.058,39.6805714,-75.7523085,2.576,0,-0.03,0.63,-8957,11.856,0,0,7,3,32411,13945,6,-5,0,1,0,0,0,0
17.7.2015,28:19.6,0,-0.512,0.224,179.473,-0.504,0.092,179.862,-5,-44,-11,-0.009,-0.002,-0.962,0.001,0.002,0.002,0.962,1.474,-0.017,1.465,0.141,39.6805714,-75.7523085,2.576,0,-0.03,0.63,-8957,11.862,0,0,7,5,32411,13945,6,-5,0,1,0,0,0,0
17.7.2015,28:19.6,0,-0.484,0.201,179.476,-0.372,0.155,179.422,23,-1,6,-0.006,-0.003,-0.963,0.001,0,0.001,0.963,1.472,-0.018,1.508,0.453,39.6805714,-75.7523085,2.576,0,-0.03,0.63,-8957,11.86,0,0,7,6,32410,13944,6,-5,0,1,0,0,0,0
17.7.2015,28:19.7,0,-0.455,0.208,179.476,-0.235,0.275,179.252,29,-45,25,-0.004,-0.005,-0.965,0.002,-0.001,-0.001,0.964,1.481,-0.013,1.562,0.979,39.6805714,-75.7523085,2.576,0,-0.03,0.63,-8957,11.854,0,0,7,6,32410,13944,6,-5,0,1,0,0,0,0
17.7.2015,28:19.8,0,-0.431,0.209,179.476,-0.424,0.132,179.422,-32,18,-4,-0.007,-0.002,-0.966,0,0.001,-0.001,0.966,1.483,-0.01,1.457,-1.044,39.6805712,-75.7523085,2.622,0,-0.02,0.63,-8957,11.854,0,0,7,6,32410,13944,6,-5,0,1,0,0,0,0
17.7.2015,28:19.8,0,-0.42,0.179,179.476,-0.372,0.201,179.532,2,39,-12,-0.006,-0.004,-0.963,0.001,-0.002,0.001,0.963,1.479,-0.012,1.448,-0.102,39.6805712,-75.7523085,2.622,0,-0.02,0.63,-8957,11.857,0,0,7,5,32410,13944,6,-5,0,1,0,0,0,0
17.7.2015,28:19.9,0,-0.409,0.186,179.476,-0.682,0.223,179.692,4,21,-15,-0.012,-0.004,-0.965,-0.005,-0.001,-0.001,0.965,1.474,-0.014,1.451,0.003,39.680571,-75.7523085,2.663,-0.01,-0.03,0.63,-8957,11.856,0,0,7,4,32410,13944,6,-5,0,1,0,0,0,0
17.7.2015,28:20.0,0,-0.393,0.174,179.474,-0.166,0.046,179.802,13,16,53,-0.003,-0.001,-0.964,0.001,0.002,0.001,0.964,1.47,-0.016,1.452,0.051,39.680571,-75.7523085,2.663,-0.01,-0.03,0.63,-8957,11.855,0,0,7,7,32410,13944,6,-5,0,1,0,0,0,0
17.7.2015,28:20.0,0,-0.36,0.144,179.474,-0.149,0.132,179.802,29,16,0,-0.003,-0.002,-0.961,0,-0.001,0.003,0.96,1.479,-0.012,1.581,1.268,39.680571,-75.7523085,2.663,-0.01,-0.03,0.63,-8957,11.852,0,0,7,5,32410,13943,6,-5,0,1,0,0,0,0
17.7.2015,28:20.1,0,-0.33,0.144,179.472,-0.275,-0.097,179.642,39,36,32,-0.005,0.002,-0.964,-0.001,0.003,-0.001,0.964,1.486,-0.008,1.454,-1.207,39.6805708,-75.7523084,2.714,0.01,-0.02,0.63,-8957,11.862,0,0,7,8,32410,13943,6,-5,0,1,0,0,0,0
17.7.2015,28:20.3,0,-0.309,0.135,179.471,-0.137,0.212,179.802,-34,-28,18,-0.002,-0.004,-0.967,0.001,-0.001,-0.003,0.966,1.479,-0.011,1.458,0.097,39.6805708,-75.7523084,2.714,0.01,-0.02,0.63,-8957,11.863,0,0,7,6,32410,13943,4,-4,0,1,0,0,0,0
17.7.2015,28:20.3,0,-0.268,0.129,179.489,-0.212,0.195,179.862,41,16,-13,-0.004,-0.003,-0.963,-0.001,-0.001,0.001,0.963,1.474,-0.013,1.455,-0.046,39.6805706,-75.7523083,2.761,-0.01,-0.02,0.63,-8957,11.863,0,0,7,6,32408,13943,4,-4,0,1,0,0,0,0
17.7.2015,28:20.4,0,-0.237,0.144,179.502,-0.183,0.258,179.862,50,56,-8,-0.003,-0.004,-0.966,0,-0.002,-0.002,0.966,1.471,-0.015,1.444,-0.09,39.6805706,-75.7523083,2.761,-0.01,-0.02,0.63,-8957,11.865,0,0,7,10,32408,13943,4,-4,0,1,0,0,0,0
17.7.2015,28:20.5,0,-0.207,0.131,179.52,-0.132,0.12,179.862,-38,-50,13,-0.002,-0.002,-0.963,0,0,0.001,0.963,1.475,-0.011,1.533,0.813,39.6805706,-75.7523083,2.761,-0.01,-0.02,0.63,-8957,11.864,0,0,7,8,32408,13943,4,-4,0,1,0,0,0,0
17.7.2015,28:20.5,0,-0.207,0.131,179.52,-0.132,0.12,179.862,-38,-50,13,-0.002,-0.002,-0.963,0,0,0.001,0.963,1.475,-0.011,1.533,0.813,39.6805704,-75.7523083,2.81,0,-0.01,0.63,-8957,11.866,0,0,7,2,32408,13943,4,-4,0,1,0,0,0,0
17.7.2015,28:20.7,0,-0.146,0.185,179.553,-0.034,0.201,179.912,-53,1,0,-0.001,-0.004,-0.966,0.001,0,-0.001,0.966,1.47,-0.012,1.451,0.144,39.6805704,-75.7523083,2.81,0,-0.01,0.63,-8957,11.862,0,0,7,3,32408,13943,4,-4,0,1,0,0,0,0
17.7.2015,28:20.7,0,-0.115,0.187,179.548,0.063,0.04,179.912,51,-36,-34,0.001,-0.001,-0.963,0.002,0.003,0.002,0.963,1.466,-0.013,1.447,-0.041,39.6805702,-75.7523082,2.855,0.01,-0.01,0.63,-8957,11.864,0,0,7,3,32407,13943,4,-4,0,1,0,0,0,0
17.7.2015,28:20.8,0,-0.109,0.214,179.547,-0.132,0.201,179.582,-16,-2,30,-0.002,-0.004,-0.96,-0.001,0.003,0.004,0.96,1.463,-0.017,1.493,0.466,39.6805702,-75.7523082,2.855,0.01,-0.01,0.63,-8957,11.864,0,0,7,9,32407,13942,4,-4,0,1,0,0,0,0
17.7.2015,28:20.9,0,-0.081,0.222,179.547,-0.051,0.223,179.472,-40,21,32,-0.001,-0.004,-0.96,-0.001,0.002,0.003,0.96,1.47,-0.013,1.534,0.848,39.6805702,-75.7523082,2.855,0.01,-0.01,0.63,-8957,11.865,0,0,7,5,32407,13942,4,-4,0,1,0,0,0,0
17.7.2015,28:21.0,0,-0.062,0.222,179.541,0.172,0.12,179.642,-14,0,24,0.003,-0.002,-0.959,0.003,0.002,0.002,0.958,1.47,-0.014,1.443,-0.913,39.68057,-75.7523081,2.904,-0.02,0,0.63,-8957,11.858,0,0,7,5,32407,13942,4,-4,0,1,0,0,0,0
17.7.2015,28:21.0,0,-0.034,0.192,179.543,0.172,0.057,180.792,-56,-2,-44,0.003,-0.001,-0.962,0.002,0,-0.002,0.962,1.466,-0.016,1.447,0.066,39.68057,-75.7523081,2.904,-0.02,0,0.63,-8957,11.857,0,0,7,5,32407,13942,4,-4,0,1,0,0,0,0
17.7.2015,28:21.1,0,-0.005,0.188,179.583,0.16,0,179.912,-31,8,-88,0.003,0,-0.963,0.001,0.002,-0.002,0.963,1.463,-0.016,1.453,0.131,39.68057,-75.7523081,2.904,-0.02,0,0.63,-8957,11.859,0,0,7,6,32407,13942,4,-4,0,1,0,0,0,0
17.7.2015,28:21.3,0,0.039,0.169,179.64,-0.017,0.012,180.792,20,32,13,0,0,-0.964,-0.002,0.002,-0.003,0.964,1.469,-0.012,1.537,0.827,39.6805698,-75.752308,2.955,0.02,-0.01,0.63,-8957,11.851,0,0,7,9,32405,13940,4,-4,0,1,0,0,0,0
17.7.2015,28:21.3,0,0.014,0.144,179.673,0.092,0.201,179.752,18,-25,3,0.002,-0.004,-0.965,0.001,-0.002,-0.002,0.964,1.47,-0.008,1.437,-1.004,39.6805697,-75.7523079,2.997,0,0.01,0.63,-8957,11.855,0,0,7,5,32405,13940,4,-4,0,1,0,0,0,0
17.7.2015,28:21.4,0,0.028,0.174,179.672,0.023,0.201,179.912,41,26,-6,0,-0.004,-0.963,-0.001,-0.001,-0.001,0.963,1.465,-0.011,1.429,-0.536,39.6805697,-75.7523079,2.997,0,0.01,0.63,-8957,11.857,0,0,7,6,32405,13940,4,-4,0,1,0,0,0,0
17.7.2015,28:21.5,0,0.051,0.171,179.673,0.286,0.229,179.912,-6,51,-10,0.005,-0.004,-0.96,0.003,-0.001,0.002,0.96,1.461,-0.013,1.44,0.083,39.6805697,-75.7523079,2.997,0,0.01,0.63,-8957,11.864,0,0,7,2,32404,13940,4,-4,0,1,0,0,0,0
17.7.2015,28:21.5,0,0.054,0.167,179.703,0.138,0.138,179.752,-38,-17,5,0.002,-0.002,-0.965,0.001,0,-0.002,0.965,1.458,-0.014,1.44,0.103,39.6805695,-75.7523079,3.045,0,-0.01,0.63,-8957,11.86,0,0,7,7,32402,13940,4,-4,0,1,0,0,0,0
17.7.2015,28:21.6,0,0.079,0.139,179.703,0.046,-0.051,179.752,-29,27,24,0.001,0.001,-0.963,-0.001,0.002,0,0.963,1.454,-0.015,1.476,0.34,39.6805695,-75.7523079,3.045,0,-0.01,0.63,-8957,11.861,0,0,7,9,32402,13940,4,-4,0,1,0,0,0,0
17.7.2015,28:21.7,0,0.054,0.151,179.706,-0.292,0.183,180.792,-33,14,-18,-0.005,-0.003,-0.963,-0.005,-0.001,0,0.963,1.463,-0.01,1.436,-0.877,39.6805693,-75.7523078,3.093,0.01,-0.01,0.63,-8957,11.863,0,0,7,6,32402,13940,4,-4,0,1,0,0,0,0
17.7.2015,28:21.8,0,0.017,0.19,179.738,-0.086,0.212,179.752,-15,-10,-9,-0.002,-0.004,-0.96,-0.001,0.001,0.002,0.96,1.458,-0.014,1.434,-0.096,39.6805693,-75.7523078,3.093,0.01,-0.01,0.63,-8957,11.863,0,0,7,4,32402,13940,4,-4,0,1,0,0,0,0
17.7.2015,28:21.9,0,-0.012,0.196,179.741,-0.12,0.138,179.752,5,38,-38,-0.002,-0.002,-0.961,-0.001,0.002,0,0.961,1.454,-0.016,1.429,-0.021,39.6805693,-75.7523078,3.093,0.01,-0.01,0.63,-8957,11.866,0,0,7,9,32402,13940,4,-4,0,1,0,0,0,0
17.7.2015,28:21.9,0,-0.008,0.166,179.741,0.103,0.132,179.752,-14,-84,-8,0.002,-0.002,-0.96,0.002,0,0.002,0.96,1.45,-0.017,1.424,-0.112,39.6805691,-75.7523077,3.14,-0.01,-0.02,0.62,-8957,11.862,0,0,7,5,32402,13940,4,-4,0,1,0,0,0,0
17.7.2015,28:22.0,0,-0.009,0.136,179.743,0.08,-0.051,179.752,-22,-34,36,0.001,0.001,-0.96,0.002,0.003,0.001,0.96,1.453,-0.016,1.578,1.51,39.6805691,-75.7523077,3.14,-0.01,-0.02,0.62,-8957,11.861,0,0,7,-12,32402,13939,4,-4,0,1,0,0,0,0
17.7.2015,28:22.1,0,0.018,0.137,179.744,0.075,-0.023,179.752,-33,-2,-15,0.001,0,-0.961,0,0.002,-0.001,0.961,1.466,-0.009,1.571,1.411,39.6805691,-75.7523077,3.14,-0.01,-0.02,0.62,-8957,11.862,0,0,7,5,32401,13939,4,-4,0,1,0,0,0,0
17.7.2015,28:22.1,0,0.018,0.137,179.744,0.075,-0.023,179.752,-33,-2,-15,0.001,0,-0.961,0,0.002,-0.001,0.961,1.466,-0.009,1.571,1.411,39.680569,-75.7523076,3.177,0.01,0.01,0.62,-8957,11.863,0,0,7,4,32401,13939,4,-4,0,1,0,0,0,0
17.7.2015,28:22.2,0,0.011,0.146,179.78,-0.258,0.132,180.792,-43,1,-20,-0.004,-0.002,-0.962,-0.004,0,-0.001,0.962,1.457,-0.012,1.417,-0.062,39.680569,-75.7523076,3.177,0.01,0.01,0.62,-8957,11.862,0,0,7,6,32401,13939,4,-4,0,1,0,0,0,0
17.7.2015,28:22.3,0,0.012,0.151,179.782,0.138,0.412,179.912,5,40,-3,0.002,-0.007,-0.962,0.002,-0.004,-0.001,0.962,1.451,-0.016,1.421,0.075,39.680569,-75.7523076,3.177,0.01,0.01,0.62,-8957,11.865,0,0,7,8,32400,13939,4,-4,0,1,0,0,0,0
17.7.2015,28:22.3,0,0.041,0.178,179.8,0.349,0.395,179.752,-12,4,2,0.006,-0.007,-0.963,0.005,-0.003,-0.001,0.963,1.447,-0.017,1.419,-0.052,39.6805688,-75.7523076,3.224,-0.01,-0.02,0.62,-8957,11.866,0,0,7,4,32398,13939,4,-4,0,1,0,0,0,0
17.7.2015,28:22.4,0,0.069,0.194,179.819,0.281,0.309,180.572,34,9,-32,0.005,-0.005,-0.964,0.002,-0.001,-0.002,0.964,1.449,-0.016,1.509,0.884,39.6805688,-75.7523076,3.224,-0.01,-0.02,0.62,-8957,11.865,0,0,7,5,32398,13937,4,-4,0,1,0,0,0,0
17.7.2015,28:22.4,0,0.1,0.224,179.826,0.143,0.304,180.352,-14,35,40,0.003,-0.005,-0.958,-0.001,0.001,0.003,0.958,1.454,-0.014,1.444,-0.31,39.6805688,-75.7523076,3.224,-0.01,-0.02,0.62,-8957,11.859,0,0,7,7,32398,13937,4,-4,0,1,0,0,0,0
17.7.2015,28:22.5,0,0.081,0.253,179.849,-0.074,0.338,179.642,25,16,41,-0.001,-0.006,-0.96,-0.003,-0.001,0.002,0.96,1.448,-0.016,1.406,-1.016,39.6805686,-75.7523076,3.266,-0.01,-0.01,0.62,-8957,11.858,0,0,7,5,32398,13937,4,-4,0,1,0,0,0,0
17.7.2015,28:22.6,0,0.081,0.253,179.849,-0.074,0.338,179.642,25,16,41,-0.001,-0.006,-0.96,-0.003,-0.001,0.002,0.96,1.448,-0.016,1.406,-1.016,39.6805686,-75.7523076,3.266,-0.01,-0.01,0.62,-8957,11.864,0,0,7,7,32397,13937,4,-4,0,1,0,0,0,0
17.7.2015,28:22.7,0,0.027,0.215,179.846,0.08,0.155,179.642,9,-5,7,0.001,-0.003,-0.965,0.001,0.001,-0.004,0.965,1.438,-0.019,1.415,0.03,39.6805686,-75.7523076,3.266,-0.01,-0.01,0.62,-8957,11.863,0,0,7,7,32397,13937,4,-4,0,1,0,0,0,0
17.7.2015,28:22.7,0,0.012,0.187,179.846,-0.074,0.384,179.912,15,18,-11,-0.001,-0.007,-0.961,-0.001,-0.006,0.001,0.961,1.434,-0.02,1.416,-0.001,39.6805685,-75.7523076,3.306,0.01,-0.01,0.62,-8957,11.86,0,0,7,4,32397,13937,4,-4,0,1,0,0,0,0
17.7.2015,28:22.8,0,-0.018,0.216,179.847,-0.344,0.292,179.642,50,-25,15,-0.006,-0.005,-0.962,-0.005,-0.001,0,0.962,1.438,-0.016,1.52,1.031,39.6805685,-75.7523076,3.306,0.01,-0.01,0.62,-8957,11.864,0,0,7,5,32397,13938,4,-4,0,1,0,0,0,0
17.7.2015,28:22.9,0,-0.05,0.21,179.847,-0.12,0.332,179.472,49,-8,-26,-0.002,-0.006,-0.962,0,-0.002,0,0.962,1.446,-0.012,1.438,-0.658,39.6805685,-75.7523076,3.306,0.01,-0.01,0.62,-8957,11.864,0,0,7,3,32395,13938,4,-4,0,1,0,0,0,0
17.7.2015,28:23.0,0,-0.107,0.237,179.849,-0.378,0.212,179.582,-26,39,22,-0.007,-0.004,-0.963,-0.002,0.001,0,0.962,1.439,-0.014,1.418,-0.071,39.6805683,-75.7523075,3.359,-0.01,0,0.62,-8957,11.866,0,0,7,4,32395,13938,4,-4,0,1,0,0,0,0
17.7.2015,28:23.1,0,-0.137,0.215,179.852,-0.183,0.069,179.422,-36,38,-22,-0.003,-0.001,-0.959,0.002,0.002,0.003,0.959,1.434,-0.016,1.416,-0.033,39.6805681,-75.7523073,3.401,0.01,-0.02,0.62,-8957,11.863,0,0,7,5,32395,13938,4,-4,0,1,0,0,0,0
17.7.2015,28:23.2,0,-0.161,0.231,179.852,-0.298,0.223,179.422,-12,9,19,-0.005,-0.004,-0.963,0,0,0,0.963,1.431,-0.017,1.415,0.001,39.6805681,-75.7523073,3.401,0.01,-0.02,0.62,-8957,11.861,0,0,7,6,32395,13937,4,-4,0,1,0,0,0,0
17.7.2015,28:23.3,0,-0.223,0.246,179.818,-0.47,0.246,179.362,2,-12,27,-0.008,-0.004,-0.963,-0.001,0.001,0,0.963,1.443,-0.01,1.41,-1.057,39.6805681,-75.7523073,3.401,0.01,-0.02,0.62,-8957,11.859,0,0,7,6,32395,13937,4,-4,0,1,0,0,0,0
17.7.2015,28:23.5,0,-0.312,0.296,179.745,-0.567,0.418,178.542,-36,-23,7,-0.01,-0.007,-0.965,0,-0.001,-0.001,0.965,1.429,-0.013,1.406,-0.005,39.6805679,-75.7523072,3.458,0.01,-0.03,0.62,-8957,11.863,0,0,7,3,32392,13937,4,-4,0,1,0,0,0,0
17.7.2015,28:23.6,0,-0.353,0.334,179.688,-0.699,0.418,179.202,-22,23,5,-0.012,-0.007,-0.965,-0.001,0.001,0,0.965,1.431,-0.011,1.515,1.093,39.6805677,-75.7523071,3.488,-0.01,-0.03,0.62,-8957,11.861,0,0,7,4,32392,13938,4,-4,0,1,0,0,0,0
17.7.2015,28:23.6,0,-0.383,0.345,179.653,-0.533,0.367,179.032,-17,37,-3,-0.009,-0.006,-0.961,0.002,0.001,0.003,0.961,1.44,-0.008,1.459,-0.09,39.6805677,-75.7523071,3.488,-0.01,-0.03,0.62,-8957,11.859,0,0,7,7,32392,13938,4,-4,0,1,0,0,0,0
17.7.2015,28:23.7,0,-0.404,0.375,179.634,-0.59,0.464,179.252,-20,-41,14,-0.01,-0.008,-0.965,0.002,0,-0.002,0.965,1.436,-0.01,1.398,-1.175,39.6805677,-75.7523071,3.488,-0.01,-0.03,0.62,-8957,11.862,0,0,7,7,32392,13938,4,-4,0,1,0,0,0,0
17.7.2015,28:23.8,0,-0.423,0.407,179.606,-0.436,0.487,178.982,-1,12,-21,-0.008,-0.009,-0.965,0.003,0.001,-0.003,0.965,1.431,-0.012,1.4,-0.019,39.6805675,-75.752307,3.52,0.01,-0.04,0.62,-8957,11.862,0,0,7,5,32392,13938,4,-4,0,1,0,0,0,0
17.7.2015,28:23.8,0,-0.448,0.384,179.565,-0.441,0.504,178.982,-12,-2,15,-0.008,-0.009,-0.964,0.002,-0.001,-0.001,0.964,1.427,-0.013,1.4,0.058,39.6805675,-75.752307,3.52,0.01,-0.04,0.62,-8957,11.865,0,0,7,9,32392,13938,4,-4,0,1,0,0,0,0
17.7.2015,28:23.9,0,-0.416,0.402,179.554,-0.424,0.527,179.642,3,-4,14,-0.007,-0.009,-0.964,0.001,-0.001,0,0.964,1.423,-0.015,1.403,0.026,39.6805674,-75.752307,3.539,0,-0.04,0.62,-8957,11.86,0,0,7,3,32392,13938,4,-4,0,1,0,0,0,0
17.7.2015,28:24.0,0,-0.407,0.429,179.536,-0.355,0.412,178.812,-22,-29,-65,-0.006,-0.007,-0.964,0.001,0.001,0,0.964,1.427,-0.012,1.517,1.178,39.6805674,-75.752307,3.539,0,-0.04,0.62,-8957,11.861,0,0,7,7,32390,13936,4,-4,0,1,0,0,0,0
17.7.2015,28:24.0,0,-0.379,0.439,179.512,-0.275,0.401,178.872,-12,31,-19,-0.005,-0.007,-0.962,0,0.001,0.001,0.962,1.435,-0.008,1.417,-0.806,39.6805674,-75.752307,3.539,0,-0.04,0.62,-8957,11.861,0,0,7,10,32390,13936,4,-4,0,1,0,0,0,0
17.7.2015,28:24.1,0,-0.353,0.407,179.471,-0.195,0.166,179.032,-8,26,-51,-0.003,-0.003,-0.962,0,0.004,0.001,0.962,1.43,-0.011,1.39,-1.199,39.6805673,-75.7523069,3.563,0.02,-0.01,0.62,-8957,11.856,0,0,7,7,32390,13936,4,-4,0,1,0,0,0,0
17.7.2015,28:24.2,0,-0.322,0.387,179.454,-0.178,0.349,179.032,5,-37,-45,-0.003,-0.006,-0.962,0,0,0.001,0.962,1.424,-0.013,1.389,-0.053,39.6805673,-75.7523069,3.563,0.02,-0.01,0.62,-8957,11.862,0,0,7,3,32390,13936,4,-4,0,1,0,0,0,0
17.7.2015,28:24.3,0,-0.289,0.356,179.435,-0.309,0.292,179.092,2,7,19,-0.005,-0.005,-0.963,-0.004,0,0.001,0.962,1.418,-0.015,1.395,0.039,39.6805673,-75.7523069,3.563,0.02,-0.01,0.62,-8957,11.856,0,0,7,5,32390,13936,4,-4,0,1,0,0,0,0
17.7.2015,28:24.3,0,-0.293,0.326,179.409,-0.195,0.223,179.252,-7,-17,27,-0.003,-0.004,-0.963,-0.001,0.001,0,0.963,1.415,-0.016,1.422,0.342,39.6805671,-75.7523069,3.568,-0.02,-0.08,0.62,-8957,11.864,0,0,7,6,32390,13935,4,-4,0,1,0,0,0,0
17.7.2015,28:24.4,0,-0.303,0.297,179.406,-0.281,0.069,179.312,-21,9,-20,-0.005,-0.001,-0.965,0,0.001,-0.002,0.965,1.422,-0.012,1.493,0.958,39.6805671,-75.7523069,3.568,-0.02,-0.08,0.62,-8957,11.861,0,0,7,5,32390,13935,4,-4,0,1,0,0,0,0
17.7.2015,28:24.4,0,-0.258,0.399,179.421,-0.487,-0.785,179.912,255,1341,220,-0.009,0.014,-0.936,-0.006,0.017,0.028,0.936,1.425,-0.01,1.392,-1.009,39.6805671,-75.7523069,3.568,-0.02,-0.08,0.62,-8957,11.86,0,0,7,6,32390,13935,4,-4,0,1,0,0,0,0
17.7.2015,28:24.5,0,-0.234,0.073,179.391,1.472,1.701,180.852,-49,251,219,0.026,-0.03,-0.994,0.029,-0.031,-0.03,0.994,1.421,0.001,1.394,-0.991,39.6805671,-75.7523069,3.568,-0.02,-0.08,0.62,-8957,11.863,0,0,7,7,32390,13935,4,-4,0,1,0,0,0,0
17.7.2015,28:24.6,0,-0.319,0.587,179.349,-1.616,4.75,178.762,59,990,-26,-0.028,-0.083,-0.961,-0.024,-0.077,0.002,0.964,1.418,-0.016,1.393,-0.023,39.6805671,-75.7523069,3.568,-0.02,-0.08,0.62,-8957,11.863,0,0,7,5,32388,13935,4,-4,0,1,0,0,0,0
17.7.2015,28:24.7,0,-0.266,0.171,178.797,6.863,-5.434,180.682,-491,-916,-420,0.119,0.094,-0.984,0.122,0.093,-0.02,0.996,1.414,-0.009,1.54,1.437,39.6805668,-75.7523065,3.599,0,-0.02,0.63,-8957,11.863,0,0,7,-11,32388,13933,4,-4,0,1,0,0,0,0
17.7.2015,28:24.8,0,-0.266,0.171,178.797,6.863,-5.434,180.682,-491,-916,-420,0.119,0.094,-0.984,0.122,0.093,-0.02,0.996,1.414,-0.009,1.54,1.437,39.6805668,-75.7523065,3.599,0,-0.02,0.63,-8957,11.859,0,0,7,6,32388,13933,4,-4,0,1,0,0,0,0
17.7.2015,28:24.9,0,0.234,-1.612,174.491,6.067,-2.545,180.522,1889,-549,-5657,0.106,0.044,-0.956,0.102,0.014,0.008,0.963,1.431,0.014,1.392,-1.535,39.6805668,-75.7523065,3.599,0,-0.02,0.63,-8957,11.86,0,0,7,2,32388,13933,4,-4,0,1,0,0,0,0
17.7.2015,28:25.0,0,1.213,-1.739,165.605,0.281,-2.143,167.702,-912,936,-3344,0.005,0.037,-0.856,-0.015,0.008,0.109,0.856,1.426,-0.008,1.391,-0.033,39.6805667,-75.7523065,3.604,0.03,-0.07,0.63,-8957,11.863,0,0,7,2,32387,13933,4,-4,0,1,0,0,0,0
17.7.2015,28:25.0,0,0.598,-1.15,163.233,-5.348,-1.891,163.962,-299,556,-2195,-0.093,0.033,-1.006,-0.104,0.008,-0.041,1.008,1.42,-0.048,1.395,0.01,39.6805667,-75.7523065,3.604,0.03,-0.07,0.63,-8957,11.857,0,0,7,5,32387,13933,4,-4,0,1,0,0,0,0
17.7.2015,28:25.1,0,0.513,-0.673,160.968,-4.278,5.077,160.912,225,225,-1882,-0.075,-0.088,-0.982,-0.082,-0.102,-0.015,0.988,1.419,0.003,1.52,1.291,39.6805664,-75.7523068,3.616,-0.07,-0.28,0.63,-8957,11.864,0,0,7,-31,32387,13933,4,-4,0,1,0,0,0,0
17.7.2015,28:25.2,0,0.666,-0.588,160.289,-1.375,7.822,158.932,200,291,210,-0.024,-0.136,-0.947,-0.032,-0.147,0.018,0.957,1.429,-0.013,1.518,1.21,39.6805664,-75.7523068,3.616,-0.07,-0.28,0.63,-8957,11.86,0,0,7,7,32387,13933,4,-4,0,1,0,0,0,0
17.7.2015,28:25.2,0,0.944,-0.236,160.881,-0.006,1.002,158.212,476,-150,993,0,-0.018,-0.954,-0.014,-0.022,0.012,0.954,1.428,-0.006,1.388,-1.351,39.6805664,-75.7523068,3.616,-0.07,-0.28,0.63,-8957,11.866,0,0,7,1,32387,13933,4,-4,0,1,0,0,0,0
